4,Airport ID,Name,City,Country,ICAO,Latitude,Longitude,Altitude,Timezone,DST,TZ,Type,Source
GKA,1,Goroka Airport,Goroka,Papua New Guinea,AYGA,-6.0816898345900015,145.391998291,5282,10.0,U,Pacific/Port_Moresby,airport,OurAirports
MAG,2,Madang Airport,Madang,Papua New Guinea,AYMD,-5.20707988739,145.789001465,20,10.0,U,Pacific/Port_Moresby,airport,OurAirports
HGU,3,Mount Hagen Kagamuga Airport,Mount Hagen,Papua New Guinea,AYMH,-5.826789855957031,144.29600524902344,5388,10.0,U,Pacific/Port_Moresby,airport,OurAirports
LAE,4,Nadzab Airport,Nadzab,Papua New Guinea,AYNZ,-6.569803,146.725977,239,10.0,U,Pacific/Port_Moresby,airport,OurAirports
POM,5,Port Moresby Jacksons International Airport,Port Moresby,Papua New Guinea,AYPY,-9.443380355834961,147.22000122070312,146,10.0,U,Pacific/Port_Moresby,airport,OurAirports
WWK,6,Wewak International Airport,Wewak,Papua New Guinea,AYWK,-3.5838301181800003,143.66900634799998,19,10.0,U,Pacific/Port_Moresby,airport,OurAirports
UAK,7,Narsarsuaq Airport,Narssarssuaq,Greenland,BGBW,61.1604995728,-45.4259986877,112,-3.0,E,America/Godthab,airport,OurAirports
GOH,8,Godthaab / Nuuk Airport,Godthaab,Greenland,BGGH,64.19090271,-51.678100585900005,283,-3.0,E,America/Godthab,airport,OurAirports
SFJ,9,Kangerlussuaq Airport,Sondrestrom,Greenland,BGSF,67.0122218992,-50.7116031647,165,-3.0,E,America/Godthab,airport,OurAirports
THU,10,Thule Air Base,Thule,Greenland,BGTL,76.5311965942,-68.70320129390001,251,-4.0,E,America/Thule,airport,OurAirports
AEY,11,Akureyri Airport,Akureyri,Iceland,BIAR,65.66000366210939,-18.07270050048828,6,0.0,N,Atlantic/Reykjavik,airport,OurAirports
EGS,12,Egilsstaðir Airport,Egilsstadir,Iceland,BIEG,65.28330230712889,-14.401399612426758,76,0.0,N,Atlantic/Reykjavik,airport,OurAirports
IFJ,15,Ísafjörður Airport,Isafjordur,Iceland,BIIS,66.05809783935547,-23.13529968261719,8,0.0,N,Atlantic/Reykjavik,airport,OurAirports
KEF,16,Keflavik International Airport,Keflavik,Iceland,BIKF,63.985000610352,-22.605600357055998,171,0.0,N,Atlantic/Reykjavik,airport,OurAirports
RKV,18,Reykjavik Airport,Reykjavik,Iceland,BIRK,64.1299972534,-21.9405994415,48,0.0,N,Atlantic/Reykjavik,airport,OurAirports
YAM,21,Sault Ste Marie Airport,Sault Sainte Marie,Canada,CYAM,46.48500061035156,-84.5093994140625,630,-5.0,A,America/Toronto,airport,OurAirports
YAY,24,St. Anthony Airport,St. Anthony,Canada,CYAY,51.391899108900006,-56.083099365200006,108,-3.5,A,America/St_Johns,airport,OurAirports
YBC,27,Baie Comeau Airport,Baie Comeau,Canada,CYBC,49.13249969482422,-68.20439910888672,71,-5.0,A,America/Toronto,airport,OurAirports
YBG,28,CFB Bagotville,Bagotville,Canada,CYBG,48.33060073852539,-70.99639892578125,522,-5.0,A,America/Toronto,airport,OurAirports
YBK,29,Baker Lake Airport,Baker Lake,Canada,CYBK,64.29889678960001,-96.077796936,59,-6.0,A,America/Winnipeg,airport,OurAirports
YBL,30,Campbell River Airport,Campbell River,Canada,CYBL,49.95080184936523,-125.27100372314452,346,-8.0,A,America/Vancouver,airport,OurAirports
YBR,31,Brandon Municipal Airport,Brandon,Canada,CYBR,49.91,-99.951897,1343,-6.0,A,America/Winnipeg,airport,OurAirports
YCB,32,Cambridge Bay Airport,Cambridge Bay,Canada,CYCB,69.1081008911,-105.13800048799999,90,-7.0,A,America/Edmonton,airport,OurAirports
YCD,33,Nanaimo Airport,Nanaimo,Canada,CYCD,49.054970224899996,-123.869862556,92,-8.0,A,America/Vancouver,airport,OurAirports
YCG,34,Castlegar/West Kootenay Regional Airport,Castlegar,Canada,CYCG,49.296398162799996,-117.63200378399999,1624,-8.0,A,America/Vancouver,airport,OurAirports
YCL,36,Charlo Airport,Charlo,Canada,CYCL,47.990798999999996,-66.330299,132,-4.0,A,America/Halifax,airport,OurAirports
YCO,37,Kugluktuk Airport,Coppermine,Canada,CYCO,67.81670379639999,-115.14399719200001,74,-7.0,A,America/Edmonton,airport,OurAirports
YCY,40,Clyde River Airport,Clyde River,Canada,CYCY,70.4860992432,-68.5167007446,87,-5.0,A,America/Toronto,airport,OurAirports
YZS,41,Coral Harbour Airport,Coral Harbour,Canada,CYZS,64.1932983398,-83.3593978882,210,-5.0,A,America/Coral_Harbour,airport,OurAirports
YDF,45,Deer Lake Airport,Deer Lake,Canada,CYDF,49.21080017089844,-57.39139938354492,72,-3.5,A,America/St_Johns,airport,OurAirports
YDQ,48,Dawson Creek Airport,Dawson Creek,Canada,CYDQ,55.7422981262207,-120.18299865722656,2148,-7.0,A,America/Dawson_Creek,airport,OurAirports
YEG,49,Edmonton International Airport,Edmonton,Canada,CYEG,53.309700012200004,-113.580001831,2373,-7.0,A,America/Edmonton,airport,OurAirports
YEK,50,Arviat Airport,Eskimo Point,Canada,CYEK,61.0942001343,-94.0708007812,32,-6.0,A,America/Winnipeg,airport,OurAirports
YEV,54,Inuvik Mike Zubko Airport,Inuvik,Canada,CYEV,68.30419921880001,-133.483001709,224,-7.0,A,America/Edmonton,airport,OurAirports
YFB,55,Iqaluit Airport,Iqaluit,Canada,CYFB,63.756401061999995,-68.5558013916,110,-5.0,A,America/Toronto,airport,OurAirports
YFC,56,Fredericton Airport,Fredericton,Canada,CYFC,45.86890029907226,-66.53720092773439,68,-4.0,A,America/Halifax,airport,OurAirports
YFO,58,Flin Flon Airport,Flin Flon,Canada,CYFO,54.6781005859375,-101.68199920654295,997,-6.0,A,America/Winnipeg,airport,OurAirports
YFS,60,Fort Simpson Airport,Fort Simpson,Canada,CYFS,61.76020050048828,-121.23699951171876,555,-7.0,A,America/Edmonton,airport,OurAirports
YGK,61,Kingston Norman Rogers Airport,Kingston,Canada,CYGK,44.22529983520508,-76.5969009399414,305,-5.0,A,America/Toronto,airport,OurAirports
YGL,62,La Grande Rivière Airport,La Grande Riviere,Canada,CYGL,53.62530136108398,-77.7042007446289,639,-5.0,A,America/Toronto,airport,OurAirports
YGP,63,Gaspé (Michel-Pouliot) Airport,Gaspe,Canada,CYGP,48.775299072299994,-64.4785995483,112,-5.0,A,America/Toronto,airport,OurAirports
YGR,65,Îles-de-la-Madeleine Airport,Iles De La Madeleine,Canada,CYGR,47.42470169067383,-61.778099060058594,35,-5.0,A,America/Toronto,airport,OurAirports
YHD,67,Dryden Regional Airport,Dryden,Canada,CYHD,49.83169937133789,-92.74420166015624,1354,-6.0,A,America/Winnipeg,airport,OurAirports
YHI,68,Ulukhaktok Holman Airport,Holman Island,Canada,CYHI,70.76280212402344,-117.80599975585938,117,-7.0,A,America/Edmonton,airport,OurAirports
YHK,69,Gjoa Haven Airport,Gjoa Haven,Canada,CYHK,68.635597229,-95.8497009277,152,-7.0,A,America/Edmonton,airport,OurAirports
YHM,70,John C. Munro Hamilton International Airport,Hamilton,Canada,CYHM,43.173599243199995,-79.93499755859999,780,-5.0,A,America/Toronto,airport,OurAirports
YHU,71,Montréal / Saint-Hubert Airport,Montreal,Canada,CYHU,45.5175018311,-73.4169006348,90,-5.0,A,America/Toronto,airport,OurAirports
YHY,72,Hay River / Merlyn Carter Airport,Hay River,Canada,CYHY,60.8396987915,-115.782997131,541,-7.0,A,America/Edmonton,airport,OurAirports
YHZ,73,Halifax / Stanfield International Airport,Halifax,Canada,CYHZ,44.880798339799995,-63.508598327600005,477,-4.0,A,America/Halifax,airport,OurAirports
YIO,75,Pond Inlet Airport,Pond Inlet,Canada,CYIO,72.6832962036,-77.9666976929,181,-5.0,A,America/Toronto,airport,OurAirports
YJT,77,Stephenville Airport,Stephenville,Canada,CYJT,48.5442008972168,-58.54999923706055,84,-3.5,A,America/St_Johns,airport,OurAirports
YKA,78,Kamloops Airport,Kamloops,Canada,CYKA,50.702201843299996,-120.444000244,1133,-8.0,A,America/Vancouver,airport,OurAirports
YKF,79,Waterloo Airport,Waterloo,Canada,CYKF,43.4608001709,-80.3786010742,1055,-5.0,A,America/Toronto,airport,OurAirports
YKL,80,Schefferville Airport,Schefferville,Canada,CYKL,54.80530166625977,-66.8052978515625,1709,-5.0,A,America/Toronto,airport,OurAirports
YLL,85,Lloydminster Airport,Lloydminster,Canada,CYLL,53.30920028686523,-110.072998046875,2193,-7.0,A,America/Edmonton,airport,OurAirports
YLW,87,Kelowna International Airport,Kelowna,Canada,CYLW,49.9561004639,-119.377998352,1421,-8.0,A,America/Vancouver,airport,OurAirports
YMM,90,Fort McMurray Airport,Fort Mcmurray,Canada,CYMM,56.653301238999994,-111.22200012200001,1211,-7.0,A,America/Edmonton,airport,OurAirports
YMO,91,Moosonee Airport,Moosonee,Canada,CYMO,51.291099548339844,-80.60780334472656,30,-5.0,A,America/Toronto,airport,OurAirports
YNA,94,Natashquan Airport,Natashquan,Canada,CYNA,50.18999862670898,-61.78919982910156,39,-5.0,A,America/Toronto,airport,OurAirports
YOJ,99,High Level Airport,High Level,Canada,CYOJ,58.62139892578125,-117.16500091552734,1110,-7.0,A,America/Edmonton,airport,OurAirports
YOW,100,Ottawa Macdonald-Cartier International Airport,Ottawa,Canada,CYOW,45.3224983215332,-75.66919708251953,374,-5.0,A,America/Toronto,airport,OurAirports
YPL,105,Pickle Lake Airport,Pickle Lake,Canada,CYPL,51.4463996887207,-90.21420288085938,1267,-5.0,A,America/Coral_Harbour,airport,OurAirports
YPN,106,Port Menier Airport,Port Menier,Canada,CYPN,49.83639907836914,-64.28859710693361,167,-5.0,A,America/Toronto,airport,OurAirports
YPR,108,Prince Rupert Airport,Prince Pupert,Canada,CYPR,54.2860984802,-130.445007324,116,-8.0,A,America/Vancouver,airport,OurAirports
YPY,109,Fort Chipewyan Airport,Fort Chipewyan,Canada,CYPY,58.7672004699707,-111.11699676513672,761,-7.0,A,America/Edmonton,airport,OurAirports
YQB,111,Quebec Jean Lesage International Airport,Quebec,Canada,CYQB,46.7911,-71.393303,244,-5.0,A,America/Toronto,airport,OurAirports
YQF,112,Red Deer Regional Airport,Red Deer Industrial,Canada,CYQF,52.18220138549805,-113.8939971923828,2968,-7.0,A,America/Edmonton,airport,OurAirports
YQG,113,Windsor Airport,Windsor,Canada,CYQG,42.27560043334961,-82.95559692382812,622,-5.0,A,America/Toronto,airport,OurAirports
YQK,115,Kenora Airport,Kenora,Canada,CYQK,49.78829956054688,-94.36309814453124,1332,-6.0,A,America/Winnipeg,airport,OurAirports
YQL,116,Lethbridge County Airport,Lethbridge,Canada,CYQL,49.6302986145,-112.80000305200001,3048,-7.0,A,America/Edmonton,airport,OurAirports
YQM,117,Greater Moncton International Airport,Moncton,Canada,CYQM,46.11220169067383,-64.67859649658203,232,-4.0,A,America/Halifax,airport,OurAirports
YQQ,119,Comox Airport,Comox,Canada,CYQQ,49.71080017089844,-124.88700103759766,84,-8.0,A,America/Vancouver,airport,OurAirports
YQR,120,Regina International Airport,Regina,Canada,CYQR,50.43190002441406,-104.66600036621094,1894,-6.0,N,America/Regina,airport,OurAirports
YQT,121,Thunder Bay Airport,Thunder Bay,Canada,CYQT,48.37189865112305,-89.32389831542969,653,-5.0,A,America/Toronto,airport,OurAirports
YQU,122,Grande Prairie Airport,Grande Prairie,Canada,CYQU,55.1796989441,-118.885002136,2195,-7.0,A,America/Edmonton,airport,OurAirports
YQX,125,Gander International Airport,Gander,Canada,CYQX,48.9369010925293,-54.56809997558594,496,-3.5,A,America/St_Johns,airport,OurAirports
YQY,126,Sydney / J.A. Douglas McCurdy Airport,Sydney,Canada,CYQY,46.1613998413,-60.047798156700004,203,-4.0,A,America/Halifax,airport,OurAirports
YQZ,127,Quesnel Airport,Quesnel,Canada,CYQZ,53.026100158691406,-122.51000213623048,1789,-8.0,A,America/Vancouver,airport,OurAirports
YRB,128,Resolute Bay Airport,Resolute,Canada,CYRB,74.71690368649999,-94.9693984985,215,-6.0,A,America/Winnipeg,airport,OurAirports
YRT,132,Rankin Inlet Airport,Rankin Inlet,Canada,CYRT,62.811401367200006,-92.1157989502,94,-6.0,A,America/Winnipeg,airport,OurAirports
YSB,133,Sudbury Airport,Sudbury,Canada,CYSB,46.625,-80.79889678955078,1141,-5.0,A,America/Toronto,airport,OurAirports
YSJ,135,Saint John Airport,St. John,Canada,CYSJ,45.31610107421875,-65.89029693603516,357,-4.0,A,America/Halifax,airport,OurAirports
YSM,136,Fort Smith Airport,Fort Smith,Canada,CYSM,60.020301818847656,-111.96199798583984,671,-7.0,A,America/Edmonton,airport,OurAirports
YSY,139,Sachs Harbour (David Nasogaluak Jr. Saaryuaq) Airport,Sachs Harbour,Canada,CYSY,71.9938964844,-125.24299621600001,282,-7.0,A,America/Edmonton,airport,OurAirports
YTE,140,Cape Dorset Airport,Cape Dorset,Canada,CYTE,64.2300033569,-76.5267028809,164,-5.0,A,America/Toronto,airport,OurAirports
YTH,141,Thompson Airport,Thompson,Canada,CYTH,55.80110168457031,-97.86419677734376,729,-6.0,A,America/Winnipeg,airport,OurAirports
YTS,143,Timmins/Victor M. Power,Timmins,Canada,CYTS,48.569698333699996,-81.376701355,967,-5.0,A,America/Toronto,airport,OurAirports
YTZ,144,Billy Bishop Toronto City Centre Airport,Toronto,Canada,CYTZ,43.627499,-79.396202,252,-5.0,A,America/Toronto,airport,OurAirports
YUB,145,Tuktoyaktuk Airport,Tuktoyaktuk,Canada,CYUB,69.43329620361328,-133.0260009765625,15,-7.0,A,America/Edmonton,airport,OurAirports
YUL,146,Montreal / Pierre Elliott Trudeau International Airport,Montreal,Canada,CYUL,45.4706001282,-73.7407989502,118,-5.0,A,America/Toronto,airport,OurAirports
YUT,147,Repulse Bay Airport,Repulse Bay,Canada,CYUT,66.5214004517,-86.22470092770003,80,-6.0,A,America/Winnipeg,airport,OurAirports
YUX,148,Hall Beach Airport,Hall Beach,Canada,CYUX,68.77610015869999,-81.2425,30,-5.0,A,America/Toronto,airport,OurAirports
YUY,149,Rouyn Noranda Airport,Rouyn,Canada,CYUY,48.20610046386719,-78.83560180664062,988,-5.0,A,America/Toronto,airport,OurAirports
YVM,152,Qikiqtarjuaq Airport,Broughton Island,Canada,CYVM,67.5457992554,-64.03140258789999,21,-5.0,A,America/Toronto,airport,OurAirports
YVO,153,Val-d'Or Airport,Val D'or,Canada,CYVO,48.0532989502,-77.7827987671,1107,-5.0,A,America/Toronto,airport,OurAirports
YVP,154,Kuujjuaq Airport,Quujjuaq,Canada,CYVP,58.09609985351562,-68.42690277099611,129,-5.0,A,America/Toronto,airport,OurAirports
YVQ,155,Norman Wells Airport,Norman Wells,Canada,CYVQ,65.28160095214844,-126.7979965209961,238,-7.0,A,America/Edmonton,airport,OurAirports
YVR,156,Vancouver International Airport,Vancouver,Canada,CYVR,49.193901061999995,-123.183998108,14,-8.0,A,America/Vancouver,airport,OurAirports
YWG,160,Winnipeg / James Armstrong Richardson International Airport,Winnipeg,Canada,CYWG,49.909999847399995,-97.2398986816,783,-6.0,A,America/Winnipeg,airport,OurAirports
YWK,161,Wabush Airport,Wabush,Canada,CYWK,52.92190170288086,-66.86440277099611,1808,-4.0,A,America/Halifax,airport,OurAirports
YWL,162,Williams Lake Airport,Williams Lake,Canada,CYWL,52.1831016541,-122.054000854,3085,-8.0,A,America/Vancouver,airport,OurAirports
YXC,164,Cranbrook/Canadian Rockies International Airport,Cranbrook,Canada,CYXC,49.610801696777,-115.78199768066001,3082,-7.0,A,America/Edmonton,airport,OurAirports
YXE,166,Saskatoon John G. Diefenbaker International Airport,Saskatoon,Canada,CYXE,52.170799255371094,-106.6999969482422,1653,-6.0,N,America/Regina,airport,OurAirports
YXH,167,Medicine Hat Airport,Medicine Hat,Canada,CYXH,50.01890182495117,-110.72100067138672,2352,-7.0,A,America/Edmonton,airport,OurAirports
YXJ,168,Fort St John Airport,Fort Saint John,Canada,CYXJ,56.23809814453125,-120.73999786376952,2280,-7.0,A,America/Dawson_Creek,airport,OurAirports
YXL,169,Sioux Lookout Airport,Sioux Lookout,Canada,CYXL,50.11389923095703,-91.9052963256836,1258,-6.0,A,America/Winnipeg,airport,OurAirports
YXP,170,Pangnirtung Airport,Pangnirtung,Canada,CYXP,66.1449966431,-65.71360015869999,75,-5.0,A,America/Toronto,airport,OurAirports
YXS,172,Prince George Airport,Prince George,Canada,CYXS,53.8894004822,-122.679000854,2267,-8.0,A,America/Vancouver,airport,OurAirports
YXT,173,Northwest Regional Airport Terrace-Kitimat,Terrace,Canada,CYXT,54.468498,-128.576009,713,-8.0,A,America/Vancouver,airport,OurAirports
YXU,174,London Airport,London,Canada,CYXU,43.035599,-81.1539,912,-5.0,A,America/Toronto,airport,OurAirports
YXX,175,Abbotsford Airport,Abbotsford,Canada,CYXX,49.02529907226562,-122.36100006103516,195,-8.0,A,America/Vancouver,airport,OurAirports
YXY,176,Whitehorse / Erik Nielsen International Airport,Whitehorse,Canada,CYXY,60.709598541300004,-135.067001343,2317,-8.0,A,America/Vancouver,airport,OurAirports
YYB,177,North Bay Airport,North Bay,Canada,CYYB,46.36360168457031,-79.42279815673828,1215,-5.0,A,America/Toronto,airport,OurAirports
YYC,178,Calgary International Airport,Calgary,Canada,CYYC,51.113899231000005,-114.019996643,3557,-7.0,A,America/Edmonton,airport,OurAirports
YYD,179,Smithers Airport,Smithers,Canada,CYYD,54.82469940185547,-127.18299865722656,1712,-8.0,A,America/Vancouver,airport,OurAirports
YYE,180,Fort Nelson Airport,Fort Nelson,Canada,CYYE,58.8363990784,-122.59700012200001,1253,-8.0,A,America/Vancouver,airport,OurAirports
YYF,181,Penticton Airport,Penticton,Canada,CYYF,49.46310043334961,-119.60199737548828,1129,-8.0,A,America/Vancouver,airport,OurAirports
YYG,182,Charlottetown Airport,Charlottetown,Canada,CYYG,46.290000915527344,-63.12110137939453,160,-4.0,A,America/Halifax,airport,OurAirports
YYH,183,Taloyoak Airport,Spence Bay,Canada,CYYH,69.5466995239,-93.57669830319999,92,-7.0,A,America/Edmonton,airport,OurAirports
YYJ,184,Victoria International Airport,Victoria,Canada,CYYJ,48.646900177,-123.426002502,63,-8.0,A,America/Vancouver,airport,OurAirports
YYQ,187,Churchill Airport,Churchill,Canada,CYYQ,58.73920059204102,-94.06500244140624,94,-6.0,A,America/Winnipeg,airport,OurAirports
YYR,188,Goose Bay Airport,Goose Bay,Canada,CYYR,53.3191986084,-60.425800323500006,160,-4.0,A,America/Halifax,airport,OurAirports
YYT,189,St. John's International Airport,St. John's,Canada,CYYT,47.618598938000005,-52.751899719200004,461,-3.5,A,America/St_Johns,airport,OurAirports
YYU,190,Kapuskasing Airport,Kapuskasing,Canada,CYYU,49.41389846801758,-82.46749877929688,743,-5.0,A,America/Toronto,airport,OurAirports
YYY,192,Mont Joli Airport,Mont Joli,Canada,CYYY,48.60860061645508,-68.20809936523439,172,-5.0,A,America/Toronto,airport,OurAirports
YYZ,193,Lester B. Pearson International Airport,Toronto,Canada,CYYZ,43.6772003174,-79.63059997559999,569,-5.0,A,America/Toronto,airport,OurAirports
YZF,196,Yellowknife Airport,Yellowknife,Canada,CYZF,62.46279907226562,-114.44000244140624,675,-7.0,A,America/Edmonton,airport,OurAirports
YZP,198,Sandspit Airport,Sandspit,Canada,CYZP,53.25429916379999,-131.813995361,21,-8.0,A,America/Vancouver,airport,OurAirports
YZR,199,Chris Hadfield Airport,Sarnia,Canada,CYZR,42.9994010925293,-82.30889892578125,594,-5.0,A,America/Toronto,airport,OurAirports
YZT,200,Port Hardy Airport,Port Hardy,Canada,CYZT,50.68059921264648,-127.36699676513672,71,-8.0,A,America/Vancouver,airport,OurAirports
YZV,202,Sept-Îles Airport,Sept-iles,Canada,CYZV,50.22330093383789,-66.26560211181639,180,-5.0,A,America/Toronto,airport,OurAirports
ZFM,206,Fort Mcpherson Airport,Fort Mcpherson,Canada,CZFM,67.40750122070311,-134.86099243164062,116,-7.0,A,America/Edmonton,airport,OurAirports
BJA,209,Soummam Airport,Bejaja,Algeria,DAAE,36.712001800500005,5.0699200630200005,20,1.0,N,Africa/Algiers,airport,OurAirports
ALG,210,Houari Boumediene Airport,Algier,Algeria,DAAG,36.691001892089844,3.215409994125366,82,1.0,N,Africa/Algiers,airport,OurAirports
DJG,211,Djanet Inedbirene Airport,Djanet,Algeria,DAAJ,24.292800903299998,9.45244026184,3176,1.0,N,Africa/Algiers,airport,OurAirports
TMR,216,Aguenar – Hadj Bey Akhamok Airport,Tamanrasset,Algeria,DAAT,22.8115005493,5.45107984543,4518,1.0,N,Africa/Algiers,airport,OurAirports
AAE,220,Annaba Airport,Annaba,Algeria,DABB,36.82220077514648,7.8091697692871085,16,1.0,N,Africa/Algiers,airport,OurAirports
CZL,221,Mohamed Boudiaf International Airport,Constantine,Algeria,DABC,36.2760009765625,6.620389938354492,2265,1.0,N,Africa/Algiers,airport,OurAirports
TEE,222,Cheikh Larbi Tébessi Airport,Tebessa,Algeria,DABS,35.4315986633,8.120719909670001,2661,1.0,N,Africa/Algiers,airport,OurAirports
HRM,224,Hassi R'Mel Airport,Tilrempt,Algeria,DAFH,32.93040084838867,3.311539888381958,2540,1.0,N,Africa/Algiers,airport,OurAirports
TID,225,Bou Chekif Airport,Tiaret,Algeria,DAOB,35.3410987854,1.4631500244100002,3245,1.0,N,Africa/Algiers,airport,OurAirports
TLM,230,Zenata – Messali El Hadj Airport,Tlemcen,Algeria,DAON,35.0167007446,-1.4500000476800001,814,1.0,N,Africa/Algiers,airport,OurAirports
ORN,231,Es Senia Airport,Oran,Algeria,DAOO,35.6239013672,-0.6211829781529999,295,1.0,N,Africa/Algiers,airport,OurAirports
MUW,233,Ghriss Airport,Ghriss,Algeria,DAOV,35.207698822021484,0.14714199304580688,1686,1.0,N,Africa/Algiers,airport,OurAirports
AZR,234,Touat Cheikh Sidi Mohamed Belkebir Airport,Adrar,Algeria,DAUA,27.83760070800781,-0.1864140033721924,919,1.0,N,Africa/Algiers,airport,OurAirports
BSK,235,Biskra Airport,Biskra,Algeria,DAUB,34.793300628699996,5.73823022842,289,1.0,N,Africa/Algiers,airport,OurAirports
ELG,236,El Golea Airport,El Golea,Algeria,DAUE,30.5713005065918,2.8595900535583496,1306,1.0,N,Africa/Algiers,airport,OurAirports
GHA,237,Noumérat - Moufdi Zakaria Airport,Ghardaia,Algeria,DAUG,32.38410186767578,3.7941100597381587,1512,1.0,N,Africa/Algiers,airport,OurAirports
HME,238,Oued Irara Airport,Hassi Messaoud,Algeria,DAUH,31.673000335700003,6.140439987180001,463,1.0,N,Africa/Algiers,airport,OurAirports
INZ,239,In Salah Airport,In Salah,Algeria,DAUI,27.2509994507,2.51202011108,896,1.0,N,Africa/Algiers,airport,OurAirports
TGR,240,Touggourt Sidi Madhi Airport,Touggourt,Algeria,DAUK,33.067798614501946,6.088669776916504,279,1.0,N,Africa/Algiers,airport,OurAirports
OGX,243,Ain el Beida Airport,Ouargla,Algeria,DAUU,31.917200088500977,5.412779808044434,492,1.0,N,Africa/Algiers,airport,OurAirports
IAM,244,In Aménas Airport,Zarzaitine,Algeria,DAUZ,28.0515003204,9.64291000366,1847,1.0,N,Africa/Algiers,airport,OurAirports
COO,245,Cadjehoun Airport,Cotonou,Benin,DBBB,6.357230186462402,2.384350061416626,19,1.0,N,Africa/Porto-Novo,airport,OurAirports
OUA,246,Ouagadougou Airport,Ouagadougou,Burkina Faso,DFFD,12.35319995880127,-1.5124200582504272,1037,0.0,N,Africa/Ouagadougou,airport,OurAirports
BOY,247,Bobo Dioulasso Airport,Bobo-dioulasso,Burkina Faso,DFOO,11.160099983215332,-4.33096981048584,1511,0.0,N,Africa/Ouagadougou,airport,OurAirports
ACC,248,Kotoka International Airport,Accra,Ghana,DGAA,5.605189800262451,-0.16678600013256073,205,0.0,N,Africa/Accra,airport,OurAirports
TML,249,Tamale Airport,Tamale,Ghana,DGLE,9.55718994140625,-0.8632140159606934,553,0.0,N,Africa/Accra,airport,OurAirports
NYI,251,Sunyani Airport,Sunyani,Ghana,DGSN,7.361830234527588,-2.3287599086761475,1014,0.0,N,Africa/Accra,airport,OurAirports
TKD,252,Takoradi Airport,Takoradi,Ghana,DGTK,4.896059989929199,-1.7747600078582764,21,0.0,N,Africa/Accra,airport,OurAirports
ABJ,253,Port Bouet Airport,Abidjan,Cote d'Ivoire,DIAP,5.261390209197998,-3.9262900352478023,21,0.0,N,Africa/Abidjan,airport,OurAirports
ABV,260,Nnamdi Azikiwe International Airport,Abuja,Nigeria,DNAA,9.006790161132812,7.263169765472412,1123,1.0,N,Africa/Lagos,airport,OurAirports
BNI,262,Benin Airport,Benin,Nigeria,DNBE,6.3169798851013175,5.599500179290772,258,1.0,N,Africa/Lagos,airport,OurAirports
CBQ,263,Margaret Ekpo International Airport,Calabar,Nigeria,DNCA,4.976019859313965,8.347200393676758,210,1.0,N,Africa/Lagos,airport,OurAirports
ENU,264,Akanu Ibiam International Airport,Enugu,Nigeria,DNEN,6.4742698669433585,7.561960220336914,466,1.0,N,Africa/Lagos,airport,OurAirports
IBA,266,Ibadan Airport,Ibadan,Nigeria,DNIB,7.362460136413574,3.97832989692688,725,1.0,N,Africa/Lagos,airport,OurAirports
ILR,267,Ilorin International Airport,Ilorin,Nigeria,DNIL,8.440210342407228,4.493919849395752,1126,1.0,N,Africa/Lagos,airport,OurAirports
JOS,268,Yakubu Gowon Airport,Jos,Nigeria,DNJO,9.639829635620117,8.869050025939941,4232,1.0,N,Africa/Lagos,airport,OurAirports
KAD,269,Kaduna Airport,Kaduna,Nigeria,DNKA,10.696000099182127,7.320109844207764,2073,1.0,N,Africa/Lagos,airport,OurAirports
KAN,270,Mallam Aminu International Airport,Kano,Nigeria,DNKN,12.047599792480467,8.524620056152344,1562,1.0,N,Africa/Lagos,airport,OurAirports
LOS,273,Murtala Muhammed International Airport,Lagos,Nigeria,DNMM,6.5773701667785645,3.321160078048706,135,1.0,N,Africa/Lagos,airport,OurAirports
PHC,275,Port Harcourt International Airport,Port Hartcourt,Nigeria,DNPO,5.0154900550842285,6.94959020614624,87,1.0,N,Africa/Lagos,airport,OurAirports
SKO,276,Sadiq Abubakar III International Airport,Sokoto,Nigeria,DNSO,12.916299819946287,5.207190036773682,1010,1.0,N,Africa/Lagos,airport,OurAirports
YOL,277,Yola Airport,Yola,Nigeria,DNYO,9.257550239562988,12.430399894714355,599,1.0,N,Africa/Lagos,airport,OurAirports
NIM,280,Diori Hamani International Airport,Niamey,Niger,DRRN,13.481499671936035,2.1836099624633794,732,1.0,N,Africa/Niamey,airport,OurAirports
MIR,286,Monastir Habib Bourguiba International Airport,Monastir,Tunisia,DTMB,35.75809860229492,10.75469970703125,9,1.0,E,Africa/Tunis,airport,OurAirports
TUN,287,Tunis Carthage International Airport,Tunis,Tunisia,DTTA,36.85100173950195,10.22719955444336,22,1.0,E,Africa/Tunis,airport,OurAirports
GAF,290,Gafsa Ksar International Airport,Gafsa,Tunisia,DTTF,34.42200088500977,8.822500228881836,1060,1.0,E,Africa/Tunis,airport,OurAirports
GAE,291,Gabès Matmata International Airport,Gabes,Tunisia,DTTG,33.87689971923828,10.103300094604492,26,1.0,E,Africa/Tunis,airport,OurAirports
DJE,293,Djerba Zarzis International Airport,Djerba,Tunisia,DTTJ,33.875,10.775500297546387,19,1.0,E,Africa/Tunis,airport,OurAirports
SFA,295,Sfax Thyna International Airport,Sfax,Tunisia,DTTX,34.71799850463867,10.690999984741213,85,1.0,E,Africa/Tunis,airport,OurAirports
TOE,296,Tozeur Nefta International Airport,Tozeur,Tunisia,DTTZ,33.939701080322266,8.110560417175293,287,1.0,E,Africa/Tunis,airport,OurAirports
LFW,298,Lomé-Tokoin Airport,Lome,Togo,DXXX,6.165609836578369,1.2545100450515747,72,0.0,N,Africa/Lome,airport,OurAirports
ANR,299,Antwerp International Airport (Deurne),Antwerp,Belgium,EBAW,51.189399719200004,4.46027994156,39,1.0,E,Europe/Brussels,airport,OurAirports
BRU,302,Brussels Airport,Brussels,Belgium,EBBR,50.9014015198,4.48443984985,184,1.0,E,Europe/Brussels,airport,OurAirports
CRL,304,Brussels South Charleroi Airport,Charleroi,Belgium,EBCI,50.4592018127,4.453820228580001,614,1.0,E,Europe/Brussels,airport,OurAirports
LGG,309,Liège Airport,Liege,Belgium,EBLG,50.63740158081055,5.443220138549805,659,1.0,E,Europe/Brussels,airport,OurAirports
OST,310,Ostend-Bruges International Airport,Ostend,Belgium,EBOS,51.1988983154,2.8622200489,13,1.0,E,Europe/Brussels,airport,OurAirports
SXF,337,Berlin-Schönefeld International Airport,Berlin,Germany,EDDB,52.38000106811499,13.522500038147,157,1.0,E,Europe/Berlin,airport,OurAirports
DRS,338,Dresden Airport,Dresden,Germany,EDDC,51.1328010559082,13.767200469970705,755,1.0,E,Europe/Berlin,airport,OurAirports
ERF,339,Erfurt Airport,Erfurt,Germany,EDDE,50.97980117797852,10.958100318908693,1036,1.0,E,Europe/Berlin,airport,OurAirports
FRA,340,Frankfurt am Main International Airport,Frankfurt,Germany,EDDF,50.033333299999995,8.5705556,364,1.0,E,Europe/Berlin,airport,OurAirports
FMO,341,Münster Osnabrück Airport,Munster,Germany,EDDG,52.134601593,7.68483018875,160,1.0,E,Europe/Berlin,airport,OurAirports
HAM,342,Hamburg Airport,Hamburg,Germany,EDDH,53.630401611328004,9.988229751586902,53,1.0,E,Europe/Berlin,airport,OurAirports
CGN,344,Cologne Bonn Airport,Cologne,Germany,EDDK,50.865898132299996,7.1427397728,302,1.0,E,Europe/Berlin,airport,OurAirports
DUS,345,Düsseldorf International Airport,Duesseldorf,Germany,EDDL,51.28950119018555,6.766779899597168,147,1.0,E,Europe/Berlin,airport,OurAirports
MUC,346,Munich International Airport,Munich,Germany,EDDM,48.353801727295,11.786100387572999,1487,1.0,E,Europe/Berlin,airport,OurAirports
NUE,347,Nuremberg Airport,Nuernberg,Germany,EDDN,49.498699,11.078055599999999,1046,1.0,E,Europe/Berlin,airport,OurAirports
LEJ,348,Leipzig Halle Airport,Leipzig,Germany,EDDP,51.423888899999994,12.236388900000001,465,1.0,E,Europe/Berlin,airport,OurAirports
SCN,349,Saarbrücken Airport,Saarbruecken,Germany,EDDR,49.2145996094,7.10950994492,1058,1.0,E,Europe/Berlin,airport,OurAirports
STR,350,Stuttgart Airport,Stuttgart,Germany,EDDS,48.6898994446,9.22196006775,1276,1.0,E,Europe/Berlin,airport,OurAirports
TXL,351,Berlin-Tegel International Airport,Berlin,Germany,EDDT,52.559700012200004,13.287699699400001,122,1.0,E,Europe/Berlin,airport,OurAirports
HAJ,352,Hannover Airport,Hannover,Germany,EDDV,52.461101532,9.68507957458,183,1.0,E,Europe/Berlin,airport,OurAirports
BRE,353,Bremen Airport,Bremen,Germany,EDDW,53.0475006104,8.78666973114,14,1.0,E,Europe/Berlin,airport,OurAirports
HHN,355,Frankfurt-Hahn Airport,Hahn,Germany,EDFH,49.948699951200005,7.263889789579999,1649,1.0,E,Europe/Berlin,airport,OurAirports
MHG,356,Mannheim-City Airport,Mannheim,Germany,EDFM,49.47305679321289,8.514166831970215,308,1.0,E,Europe/Berlin,airport,OurAirports
XFW,362,Hamburg-Finkenwerder Airport,Hamburg,Germany,EDHI,53.5352783203125,9.835556030273438,23,1.0,E,Europe/Berlin,airport,OurAirports
LBC,364,Lübeck Blankensee Airport,Luebeck,Germany,EDHL,53.805400848400005,10.7192001343,53,1.0,E,Europe/Berlin,airport,OurAirports
PAD,371,Paderborn Lippstadt Airport,Paderborn,Germany,EDLP,51.614101409899995,8.616319656369999,699,1.0,E,Europe/Berlin,airport,OurAirports
DTM,373,Dortmund Airport,Dortmund,Germany,EDLW,51.518299102799986,7.61223983765,425,1.0,E,Europe/Berlin,airport,OurAirports
AGB,374,Augsburg Airport,Augsburg,Germany,EDMA,48.425278000000006,10.931667,1516,1.0,E,Europe/Berlin,airport,OurAirports
FDH,382,Friedrichshafen Airport,Friedrichshafen,Germany,EDNY,47.671298980699994,9.511489868160002,1367,1.0,E,Europe/Berlin,airport,OurAirports
ZQW,393,Zweibrücken Airport,Zweibruecken,Germany,EDRZ,49.20940017700195,7.400559902191162,1132,1.0,E,Europe/Berlin,airport,OurAirports
KSF,400,Kassel-Calden Airport,Kassel,Germany,EDVK,51.417273,9.384967,820,1.0,E,Europe/Berlin,airport,OurAirports
GWT,410,Westerland Sylt Airport,Westerland,Germany,EDXW,54.9132003784,8.34047031403,51,1.0,E,Europe/Berlin,airport,OurAirports
URE,413,Kuressaare Airport,Kuressaare,Estonia,EEKE,58.22990036010742,22.50950050354004,14,2.0,E,Europe/Tallinn,airport,OurAirports
TLL,415,Lennart Meri Tallinn Airport,Tallinn-ulemiste International,Estonia,EETN,59.41329956049999,24.8327999115,131,2.0,E,Europe/Tallinn,airport,OurAirports
TAY,416,Tartu Airport,Tartu,Estonia,EETU,58.30749893189999,26.6903991699,219,2.0,E,Europe/Tallinn,airport,OurAirports
HEL,421,Helsinki Vantaa Airport,Helsinki,Finland,EFHK,60.317199707031,24.963300704956,179,2.0,E,Europe/Helsinki,airport,OurAirports
IVL,428,Ivalo Airport,Ivalo,Finland,EFIV,68.607299804688,27.405300140380998,481,2.0,E,Europe/Helsinki,airport,OurAirports
JOE,429,Joensuu Airport,Joensuu,Finland,EFJO,62.662899017334006,29.607500076294,398,2.0,E,Europe/Helsinki,airport,OurAirports
JYV,430,Jyvaskyla Airport,Jyvaskyla,Finland,EFJY,62.399501800537,25.678300857544,459,2.0,E,Europe/Helsinki,airport,OurAirports
KEM,432,Kemi-Tornio Airport,Kemi,Finland,EFKE,65.778701782227,24.582099914551,61,2.0,E,Europe/Helsinki,airport,OurAirports
KAJ,433,Kajaani Airport,Kajaani,Finland,EFKI,64.285499572754,27.692399978638,483,2.0,E,Europe/Helsinki,airport,OurAirports
KOK,435,Kokkola-Pietarsaari Airport,Kruunupyy,Finland,EFKK,63.721199035645,23.143100738525,84,2.0,E,Europe/Helsinki,airport,OurAirports
KAO,437,Kuusamo Airport,Kuusamo,Finland,EFKS,65.98760223388699,29.239400863647,866,2.0,E,Europe/Helsinki,airport,OurAirports
KTT,438,Kittilä Airport,Kittila,Finland,EFKT,67.700996398926,24.846799850464002,644,2.0,E,Europe/Helsinki,airport,OurAirports
KUO,439,Kuopio Airport,Kuopio,Finland,EFKU,63.007099151611,27.797800064087,323,2.0,E,Europe/Helsinki,airport,OurAirports
LPP,441,Lappeenranta Airport,Lappeenranta,Finland,EFLP,61.044601,28.144743,349,2.0,E,Europe/Helsinki,airport,OurAirports
MHQ,442,Mariehamn Airport,Mariehamn,Finland,EFMA,60.122200012207,19.898199081421,17,2.0,E,Europe/Mariehamn,airport,OurAirports
OUL,446,Oulu Airport,Oulu,Finland,EFOU,64.930099487305,25.354600906372,47,2.0,E,Europe/Helsinki,airport,OurAirports
POR,448,Pori Airport,Pori,Finland,EFPO,61.461700439453004,21.799999237061,44,2.0,E,Europe/Helsinki,airport,OurAirports
RVN,453,Rovaniemi Airport,Rovaniemi,Finland,EFRO,66.564796447754,25.830400466919,642,2.0,E,Europe/Helsinki,airport,OurAirports
SVL,455,Savonlinna Airport,Savonlinna,Finland,EFSA,61.943099975586,28.945100784302,311,2.0,E,Europe/Helsinki,airport,OurAirports
TMP,458,Tampere-Pirkkala Airport,Tampere,Finland,EFTP,61.414100646973,23.604400634766,390,2.0,E,Europe/Helsinki,airport,OurAirports
TKU,460,Turku Airport,Turku,Finland,EFTU,60.514099121094,22.262800216675,161,2.0,E,Europe/Helsinki,airport,OurAirports
VAA,462,Vaasa Airport,Vaasa,Finland,EFVA,63.050701141357,21.762199401855,19,2.0,E,Europe/Helsinki,airport,OurAirports
BFS,465,Belfast International Airport,Belfast,United Kingdom,EGAA,54.6575012207,-6.21582984924,268,0.0,E,Europe/London,airport,OurAirports
BHD,467,George Best Belfast City Airport,Belfast,United Kingdom,EGAC,54.61809921264648,-5.872499942779541,15,0.0,E,Europe/London,airport,OurAirports
LDY,468,City of Derry Airport,Londonderry,United Kingdom,EGAE,55.04280090332031,-7.161109924316406,22,0.0,E,Europe/London,airport,OurAirports
BHX,469,Birmingham International Airport,Birmingham,United Kingdom,EGBB,52.4538993835,-1.7480299472799998,327,0.0,E,Europe/London,airport,OurAirports
GLO,472,Gloucestershire Airport,Golouchestershire,United Kingdom,EGBJ,51.89419937133789,-2.1672201156616206,101,0.0,E,Europe/London,airport,OurAirports
MAN,478,Manchester Airport,Manchester,United Kingdom,EGCC,53.35369873046875,-2.2749500274658203,257,0.0,E,Europe/London,airport,OurAirports
NQY,481,Newquay Cornwall Airport,Newquai,United Kingdom,EGHQ,50.44060134887695,-4.995409965515137,390,0.0,E,Europe/London,airport,OurAirports
CWL,488,Cardiff International Airport,Cardiff,United Kingdom,EGFF,51.39670181274414,-3.343329906463623,220,0.0,E,Europe/London,airport,OurAirports
BRS,490,Bristol Airport,Bristol,United Kingdom,EGGD,51.382702,-2.71909,622,0.0,E,Europe/London,airport,OurAirports
LPL,491,Liverpool John Lennon Airport,Liverpool,United Kingdom,EGGP,53.33359909057617,-2.849720001220703,80,0.0,E,Europe/London,airport,OurAirports
LTN,492,London Luton Airport,London,United Kingdom,EGGW,51.87469863891602,-0.36833301186561584,526,0.0,E,Europe/London,airport,OurAirports
BOH,494,Bournemouth Airport,Bournemouth,United Kingdom,EGHH,50.77999877929688,-1.8424999713897705,38,0.0,E,Europe/London,airport,OurAirports
SOU,495,Southampton Airport,Southampton,United Kingdom,EGHI,50.95029830932617,-1.3567999601364136,44,0.0,E,Europe/London,airport,OurAirports
ACI,497,Alderney Airport,Alderney,Guernsey,EGJA,49.70610046386719,-2.2147200107574463,290,0.0,E,Europe/Guernsey,airport,OurAirports
GCI,498,Guernsey Airport,Guernsey,Guernsey,EGJB,49.43500137329102,-2.601969957351685,336,0.0,E,Europe/Guernsey,airport,OurAirports
JER,499,Jersey Airport,Jersey,Jersey,EGJJ,49.20790100097656,-2.1955099105834956,277,0.0,E,Europe/Jersey,airport,OurAirports
LGW,502,London Gatwick Airport,London,United Kingdom,EGKK,51.14810180664063,-0.19027799367904666,202,0.0,E,Europe/London,airport,OurAirports
LCY,503,London City Airport,London,United Kingdom,EGLC,51.505299,0.055277999999999994,19,0.0,E,Europe/London,airport,OurAirports
LHR,507,London Heathrow Airport,London,United Kingdom,EGLL,51.4706,-0.461941,83,0.0,E,Europe/London,airport,OurAirports
SEN,508,Southend Airport,Southend,United Kingdom,EGMC,51.5713996887207,0.6955559849739075,49,0.0,E,Europe/London,airport,OurAirports
BLK,514,Blackpool International Airport,Blackpool,United Kingdom,EGNH,53.77170181274414,-3.0286099910736084,34,0.0,E,Europe/London,airport,OurAirports
HUY,515,Humberside Airport,Humberside,United Kingdom,EGNJ,53.57440185546875,-0.350832998752594,121,0.0,E,Europe/London,airport,OurAirports
LBA,517,Leeds Bradford Airport,Leeds,United Kingdom,EGNM,53.86589813232422,-1.6605700254440308,681,0.0,E,Europe/London,airport,OurAirports
CEG,519,Hawarden Airport,Hawarden,United Kingdom,EGNR,53.1781005859375,-2.977780103683472,45,0.0,E,Europe/London,airport,OurAirports
IOM,520,Isle of Man Airport,Isle Of Man,Isle of Man,EGNS,54.08330154418945,-4.623889923095703,52,0.0,E,Europe/Isle_of_Man,airport,OurAirports
NCL,521,Newcastle Airport,Newcastle,United Kingdom,EGNT,55.037498474121094,-1.6916699409484863,266,0.0,E,Europe/London,airport,OurAirports
MME,522,Durham Tees Valley Airport,Teesside,United Kingdom,EGNV,54.50920104980469,-1.4294099807739258,120,0.0,E,Europe/London,airport,OurAirports
EMA,523,East Midlands Airport,East Midlands,United Kingdom,EGNX,52.8311004639,-1.32806003094,306,0.0,E,Europe/London,airport,OurAirports
KOI,529,Kirkwall Airport,Kirkwall,United Kingdom,EGPA,58.957801818847656,-2.9049999713897705,50,0.0,E,Europe/London,airport,OurAirports
LSI,530,Sumburgh Airport,Sumburgh,United Kingdom,EGPB,59.87889862060547,-1.295560002326965,20,0.0,E,Europe/London,airport,OurAirports
WIC,531,Wick Airport,Wick,United Kingdom,EGPC,58.458900451660156,-3.09306001663208,126,0.0,E,Europe/London,airport,OurAirports
ABZ,532,Aberdeen Dyce Airport,Aberdeen,United Kingdom,EGPD,57.20190048217773,-2.1977798938751216,215,0.0,E,Europe/London,airport,OurAirports
INV,533,Inverness Airport,Inverness,United Kingdom,EGPE,57.54249954223633,-4.047500133514403,31,0.0,E,Europe/London,airport,OurAirports
GLA,534,Glasgow International Airport,Glasgow,United Kingdom,EGPF,55.8718986511,-4.43306016922,26,0.0,E,Europe/London,airport,OurAirports
EDI,535,Edinburgh Airport,Edinburgh,United Kingdom,EGPH,55.95000076293945,-3.372499942779541,135,0.0,E,Europe/London,airport,OurAirports
ILY,536,Islay Airport,Islay,United Kingdom,EGPI,55.68190002441406,-6.256669998168945,56,0.0,E,Europe/London,airport,OurAirports
PIK,537,Glasgow Prestwick Airport,Prestwick,United Kingdom,EGPK,55.5093994140625,-4.586669921875,65,0.0,E,Europe/London,airport,OurAirports
BEB,538,Benbecula Airport,Benbecula,United Kingdom,EGPL,57.48109817504883,-7.362780094146728,19,0.0,E,Europe/London,airport,OurAirports
DND,540,Dundee Airport,Dundee,United Kingdom,EGPN,56.45249938964844,-3.0258300304412837,17,0.0,E,Europe/London,airport,OurAirports
SYY,541,Stornoway Airport,Stornoway,United Kingdom,EGPO,58.215599060058594,-6.3311100006103525,26,0.0,E,Europe/London,airport,OurAirports
TRE,542,Tiree Airport,Tiree,United Kingdom,EGPU,56.49919891357422,-6.869170188903809,38,0.0,E,Europe/London,airport,OurAirports
NWI,547,Norwich International Airport,Norwich,United Kingdom,EGSH,52.675800323500006,1.28278005123,117,0.0,E,Europe/London,airport,OurAirports
STN,548,London Stansted Airport,London,United Kingdom,EGSS,51.8849983215,0.23499999940400002,348,0.0,E,Europe/London,airport,OurAirports
EXT,552,Exeter International Airport,Exeter,United Kingdom,EGTE,50.73440170288086,-3.4138898849487305,102,0.0,E,Europe/London,airport,OurAirports
MPN,579,Mount Pleasant Airport,Mount Pleasant,Falkland Islands,EGYP,-51.82279968261719,-58.44720077514648,244,-3.0,U,Atlantic/Stanley,airport,OurAirports
AMS,580,Amsterdam Airport Schiphol,Amsterdam,Netherlands,EHAM,52.308601379399995,4.7638897895799985,-11,1.0,E,Europe/Amsterdam,airport,OurAirports
MST,582,Maastricht Aachen Airport,Maastricht,Netherlands,EHBK,50.911701202399996,5.77014017105,375,1.0,E,Europe/Amsterdam,airport,OurAirports
EIN,585,Eindhoven Airport,Eindhoven,Netherlands,EHEH,51.4500999451,5.374529838559999,74,1.0,E,Europe/Amsterdam,airport,OurAirports
GRQ,586,Eelde Airport,Groningen,Netherlands,EHGG,53.1197013855,6.579440116880001,17,1.0,E,Europe/Amsterdam,airport,OurAirports
RTM,591,Rotterdam The Hague Airport,Rotterdam,Netherlands,EHRD,51.956902,4.43722,-15,1.0,E,Europe/Amsterdam,airport,OurAirports
ORK,596,Cork Airport,Cork,Ireland,EICK,51.84130096435547,-8.491109848022461,502,0.0,E,Europe/Dublin,airport,OurAirports
DUB,599,Dublin Airport,Dublin,Ireland,EIDW,53.42129898071289,-6.2700700759887695,242,0.0,E,Europe/Dublin,airport,OurAirports
NOC,600,Ireland West Knock Airport,Connaught,Ireland,EIKN,53.9103012084961,-8.818490028381348,665,0.0,E,Europe/Dublin,airport,OurAirports
KIR,601,Kerry Airport,Kerry,Ireland,EIKY,52.18090057373047,-9.52377986907959,112,0.0,E,Europe/Dublin,airport,OurAirports
SNN,603,Shannon Airport,Shannon,Ireland,EINN,52.701999664307,-8.9248199462891,46,0.0,E,Europe/Dublin,airport,OurAirports
WAT,605,Waterford Airport,Waterford,Ireland,EIWF,52.18719863891602,-7.086959838867188,119,0.0,E,Europe/Dublin,airport,OurAirports
AAR,607,Aarhus Airport,Aarhus,Denmark,EKAH,56.2999992371,10.619000434899998,82,1.0,E,Europe/Copenhagen,airport,OurAirports
BLL,608,Billund Airport,Billund,Denmark,EKBI,55.7402992249,9.15178012848,247,1.0,E,Europe/Copenhagen,airport,OurAirports
CPH,609,Copenhagen Kastrup Airport,Copenhagen,Denmark,EKCH,55.617900848389,12.656000137328999,17,1.0,E,Europe/Copenhagen,airport,OurAirports
EBJ,610,Esbjerg Airport,Esbjerg,Denmark,EKEB,55.5259017944336,8.553400039672853,97,1.0,E,Europe/Copenhagen,airport,OurAirports
KRP,612,Karup Airport,Karup,Denmark,EKKA,56.29750061035156,9.124629974365234,170,1.0,E,Europe/Copenhagen,airport,OurAirports
RNN,618,Bornholm Airport,Ronne,Denmark,EKRN,55.06330108642578,14.759599685668945,52,1.0,E,Europe/Copenhagen,airport,OurAirports
SGD,619,Sønderborg Airport,Soenderborg,Denmark,EKSB,54.96440124511719,9.791729927062988,24,1.0,E,Europe/Copenhagen,airport,OurAirports
FAE,625,Vagar Airport,Vagar,Faroe Islands,EKVG,62.0635986328125,-7.277219772338867,280,0.0,E,Atlantic/Faeroe,airport,OurAirports
AAL,628,Aalborg Airport,Aalborg,Denmark,EKYT,57.092758913800004,9.84924316406,10,1.0,E,Europe/Copenhagen,airport,OurAirports
LUX,629,Luxembourg-Findel International Airport,Luxemburg,Luxembourg,ELLX,49.6233333,6.204444400000001,1234,1.0,E,Europe/Luxembourg,airport,OurAirports
AES,630,Ålesund Airport,Alesund,Norway,ENAL,62.5625,6.119699954986572,69,1.0,E,Europe/Oslo,airport,OurAirports
ANX,631,Andøya Airport,Andoya,Norway,ENAN,69.292503356934,16.144199371338,43,1.0,E,Europe/Oslo,airport,OurAirports
ALF,632,Alta Airport,Alta,Norway,ENAT,69.976097106934,23.371700286865,9,1.0,E,Europe/Oslo,airport,OurAirports
BNN,634,Brønnøysund Airport,Bronnoysund,Norway,ENBN,65.461097717285,12.217499732971001,25,1.0,E,Europe/Oslo,airport,OurAirports
BOO,635,Bodø Airport,Bodo,Norway,ENBO,67.26920318603516,14.365300178527832,42,1.0,E,Europe/Oslo,airport,OurAirports
BGO,636,Bergen Airport Flesland,Bergen,Norway,ENBR,60.29339981,5.218140125,170,1.0,E,Europe/Oslo,airport,OurAirports
BJF,637,Båtsfjord Airport,Batsfjord,Norway,ENBS,70.60050201416,29.691400527954002,490,1.0,E,Europe/Oslo,airport,OurAirports
KRS,638,Kristiansand Airport,Kristiansand,Norway,ENCN,58.2042007446289,8.085370063781737,57,1.0,E,Europe/Oslo,airport,OurAirports
BDU,640,Bardufoss Airport,Bardufoss,Norway,ENDU,69.055801391602,18.540399551392,252,1.0,E,Europe/Oslo,airport,OurAirports
EVE,641,"Harstad/Narvik Airport, Evenes",Harstad/Narvik,Norway,ENEV,68.491302490234,16.678100585938,84,1.0,E,Europe/Oslo,airport,OurAirports
VDB,642,Leirin Airport,Fagernes,Norway,ENFG,61.015598297119,9.2880601882935,2697,1.0,E,Europe/Oslo,airport,OurAirports
FRO,643,Florø Airport,Floro,Norway,ENFL,61.583599090576,5.0247201919556,37,1.0,E,Europe/Oslo,airport,OurAirports
OSL,644,Oslo Gardermoen Airport,Oslo,Norway,ENGM,60.193901062011996,11.100399971008,681,1.0,E,Europe/Oslo,airport,OurAirports
HAU,645,Haugesund Airport,Haugesund,Norway,ENHD,59.34529876709001,5.208360195159901,86,1.0,E,Europe/Oslo,airport,OurAirports
HAA,646,Hasvik Airport,Hasvik,Norway,ENHK,70.486701965332,22.139699935913,21,1.0,E,Europe/Oslo,airport,OurAirports
KSU,647,Kristiansund Airport (Kvernberget),Kristiansund,Norway,ENKB,63.111801147461,7.8245201110839995,204,1.0,E,Europe/Oslo,airport,OurAirports
KKN,649,Kirkenes Airport (Høybuktmoen),Kirkenes,Norway,ENKR,69.725799560547,29.891300201416,283,1.0,E,Europe/Oslo,airport,OurAirports
MOL,651,Molde Airport,Molde,Norway,ENML,62.744701385498,7.262499809265099,10,1.0,E,Europe/Oslo,airport,OurAirports
MJF,652,Mosjøen Airport (Kjærstad),Mosjoen,Norway,ENMS,65.78399658203101,13.214900016785,237,1.0,E,Europe/Oslo,airport,OurAirports
LKL,653,Banak Airport,Lakselv,Norway,ENNA,70.068801879883,24.973499298095998,25,1.0,E,Europe/Oslo,airport,OurAirports
OLA,655,Ørland Airport,Orland,Norway,ENOL,63.69889831542969,9.604000091552734,28,1.0,E,Europe/Oslo,airport,OurAirports
RRS,656,Røros Airport,Roros,Norway,ENRO,62.578399658203004,11.342300415039,2054,1.0,E,Europe/Oslo,airport,OurAirports
RYG,657,Moss-Rygge Airport,Rygge,Norway,ENRY,59.378817000000005,10.785439,174,1.0,E,Europe/Oslo,airport,OurAirports
LYR,658,"Svalbard Airport, Longyear",Svalbard,Norway,ENSB,78.246101379395,15.465600013733,88,1.0,E,Arctic/Longyearbyen,airport,OurAirports
SKE,659,Skien Airport,Skien,Norway,ENSN,59.18500137329102,9.566940307617188,463,1.0,E,Europe/Oslo,airport,OurAirports
SRP,660,Stord Airport,Stord,Norway,ENSO,59.79190063476562,5.340849876403809,160,1.0,E,Europe/Oslo,airport,OurAirports
SSJ,662,Sandnessjøen Airport (Stokka),Sandnessjoen,Norway,ENST,65.95680236816399,12.468899726868,56,1.0,E,Europe/Oslo,airport,OurAirports
TOS,663,Tromsø Airport,Tromso,Norway,ENTC,69.68329620361328,18.91889953613281,31,1.0,E,Europe/Oslo,airport,OurAirports
TRF,664,"Sandefjord Airport, Torp",Sandefjord,Norway,ENTO,59.1866989136,10.258600235,286,1.0,E,Europe/Oslo,airport,OurAirports
TRD,665,Trondheim Airport Værnes,Trondheim,Norway,ENVA,63.45780179999999,10.9239998,56,1.0,E,Europe/Oslo,airport,OurAirports
SVG,666,Stavanger Airport Sola,Stavanger,Norway,ENZV,58.876701354,5.637780189500001,29,1.0,E,Europe/Oslo,airport,OurAirports
GDN,668,Gdańsk Lech Wałęsa Airport,Gdansk,Poland,EPGD,54.377601623535156,18.46619987487793,489,1.0,E,Europe/Warsaw,airport,OurAirports
KRK,669,John Paul II International Airport Kraków-Balice Airport,Krakow,Poland,EPKK,50.07770156860352,19.784799575805664,791,1.0,E,Europe/Warsaw,airport,OurAirports
KTW,671,Katowice International Airport,Katowice,Poland,EPKT,50.4743,19.08,995,1.0,E,Europe/Warsaw,airport,OurAirports
POZ,674,Poznań-Ławica Airport,Poznan,Poland,EPPO,52.4210014343,16.8262996674,308,1.0,E,Europe/Warsaw,airport,OurAirports
RZE,675,Rzeszów-Jasionka Airport,Rzeszow,Poland,EPRZ,50.1100006104,22.018999099699997,675,1.0,E,Europe/Warsaw,airport,OurAirports
SZZ,676,"Szczecin-Goleniów \Solidarność\"" Airport""",Szczecin,Poland,EPSC,53.584701538100006,14.902199745199999,154,1.0,E,Europe/Warsaw,airport,OurAirports
WAW,679,Warsaw Chopin Airport,Warsaw,Poland,EPWA,52.1656990051,20.9671001434,362,1.0,E,Europe/Warsaw,airport,OurAirports
WRO,680,Copernicus Wrocław Airport,Wroclaw,Poland,EPWR,51.10269927979999,16.885799408,404,1.0,E,Europe/Warsaw,airport,OurAirports
RNB,685,Ronneby Airport,Ronneby,Sweden,ESDF,56.266700744629,15.265000343322999,191,1.0,E,Europe/Stockholm,airport,OurAirports
GOT,687,Gothenburg-Landvetter Airport,Gothenborg,Sweden,ESGG,57.662799835205,12.279800415039,506,1.0,E,Europe/Stockholm,airport,OurAirports
JKG,688,Jönköping Airport,Joenkoeping,Sweden,ESGJ,57.75759887695313,14.068699836730955,741,1.0,E,Europe/Stockholm,airport,OurAirports
GSE,691,Gothenburg City Airport,Gothenborg,Sweden,ESGP,57.77470016479492,11.870400428771973,59,1.0,E,Europe/Stockholm,airport,OurAirports
THN,693,Trollhättan-Vänersborg Airport,Trollhattan,Sweden,ESGT,58.31809997558594,12.345000267028807,137,1.0,E,Europe/Stockholm,airport,OurAirports
MXX,698,Mora Airport,Mora,Sweden,ESKM,60.95790100097656,14.51140022277832,634,1.0,E,Europe/Stockholm,airport,OurAirports
NYO,699,Stockholm Skavsta Airport,Stockholm,Sweden,ESKN,58.78860092163086,16.912200927734375,140,1.0,E,Europe/Stockholm,airport,OurAirports
KID,703,Kristianstad Airport,Kristianstad,Sweden,ESMK,55.92169952392578,14.08549976348877,76,1.0,E,Europe/Stockholm,airport,OurAirports
KLR,707,Kalmar Airport,Kalkmar,Sweden,ESMQ,56.68550109863281,16.287599563598633,17,1.0,E,Europe/Stockholm,airport,OurAirports
MMX,708,Malmö Sturup Airport,Malmoe,Sweden,ESMS,55.53630536399999,13.3761978149,236,1.0,E,Europe/Stockholm,airport,OurAirports
HAD,709,Halmstad Airport,Halmstad,Sweden,ESMT,56.69110107421875,12.820199966430664,101,1.0,E,Europe/Stockholm,airport,OurAirports
VXO,711,Växjö Kronoberg Airport,Vaxjo,Sweden,ESMX,56.929100036621094,14.727999687194824,610,1.0,E,Europe/Stockholm,airport,OurAirports
EVG,714,Sveg Airport,Sveg,Sweden,ESND,62.04779815673828,14.422900199890135,1178,1.0,E,Europe/Stockholm,airport,OurAirports
GEV,715,Gällivare Airport,Gallivare,Sweden,ESNG,67.13240051269531,20.814599990844727,1027,1.0,E,Europe/Stockholm,airport,OurAirports
KRF,718,Kramfors Sollefteå Airport,Kramfors,Sweden,ESNK,63.04859924316406,17.76889991760254,34,1.0,E,Europe/Stockholm,airport,OurAirports
LYC,719,Lycksele Airport,Lycksele,Sweden,ESNL,64.54830169677734,18.71619987487793,705,1.0,E,Europe/Stockholm,airport,OurAirports
SDL,721,Sundsvall-Härnösand Airport,Sundsvall,Sweden,ESNN,62.528099060058594,17.443899154663086,16,1.0,E,Europe/Stockholm,airport,OurAirports
OER,722,Örnsköldsvik Airport,Ornskoldsvik,Sweden,ESNO,63.40829849243164,18.989999771118164,354,1.0,E,Europe/Stockholm,airport,OurAirports
KRN,724,Kiruna Airport,Kiruna,Sweden,ESNQ,67.821998596191,20.336799621582,1508,1.0,E,Europe/Stockholm,airport,OurAirports
SFT,726,Skellefteå Airport,Skelleftea,Sweden,ESNS,64.62480163574219,21.076900482177734,157,1.0,E,Europe/Stockholm,airport,OurAirports
UME,728,Umeå Airport,Umea,Sweden,ESNU,63.791801452636996,20.282800674438,24,1.0,E,Europe/Stockholm,airport,OurAirports
VHM,729,Vilhelmina Airport,Vilhelmina,Sweden,ESNV,64.5791015625,16.833599090576172,1140,1.0,E,Europe/Stockholm,airport,OurAirports
AJR,730,Arvidsjaur Airport,Arvidsjaur,Sweden,ESNX,65.59030151367189,19.28190040588379,1245,1.0,E,Europe/Stockholm,airport,OurAirports
ORB,731,Örebro Airport,Orebro,Sweden,ESOE,59.22370147705078,15.038000106811525,188,1.0,E,Europe/Stockholm,airport,OurAirports
VST,733,Stockholm Västerås Airport,Vasteras,Sweden,ESOW,59.58940124511719,16.633600234985348,21,1.0,E,Europe/Stockholm,airport,OurAirports
LLA,734,Luleå Airport,Lulea,Sweden,ESPA,65.543800354004,22.121999740601,65,1.0,E,Europe/Stockholm,airport,OurAirports
ARN,737,Stockholm-Arlanda Airport,Stockholm,Sweden,ESSA,59.651901245116996,17.918600082397,137,1.0,E,Europe/Stockholm,airport,OurAirports
BMA,738,Stockholm-Bromma Airport,Stockholm,Sweden,ESSB,59.35440063476562,17.941699981689453,47,1.0,E,Europe/Stockholm,airport,OurAirports
BLE,739,Borlange Airport,Borlange,Sweden,ESSD,60.42200088500977,15.515199661254885,503,1.0,E,Europe/Stockholm,airport,OurAirports
LPI,742,Linköping City Airport,Linkoeping,Sweden,ESSL,58.406200408900006,15.6805000305,172,1.0,E,Europe/Stockholm,airport,OurAirports
NRK,743,Norrköping Airport,Norrkoeping,Sweden,ESSP,58.58629989624024,16.250600814819336,32,1.0,E,Europe/Stockholm,airport,OurAirports
VBY,746,Visby Airport,Visby,Sweden,ESSV,57.662799835205,18.346200942993,164,1.0,E,Europe/Stockholm,airport,OurAirports
RLG,772,Rostock-Laage Airport,Laage,Germany,ETNL,53.9182014465,12.2783002853,138,1.0,E,Europe/Berlin,airport,OurAirports
BFN,794,Bram Fischer International Airport,Bloemfontein,South Africa,FABL,-29.092699050900002,26.302400589,4458,2.0,U,Africa/Johannesburg,airport,OurAirports
CPT,797,Cape Town International Airport,Cape Town,South Africa,FACT,-33.9648017883,18.6016998291,151,2.0,U,Africa/Johannesburg,airport,OurAirports
DUR,799,King Shaka International Airport,Durban,South Africa,FALE,-29.6144444444,31.119722222199997,295,2.0,U,Africa/Johannesburg,airport,OurAirports
ELS,800,Ben Schoeman Airport,East London,South Africa,FAEL,-33.0355987549,27.825899124099998,435,2.0,U,Africa/Johannesburg,airport,OurAirports
GRJ,804,George Airport,George,South Africa,FAGG,-34.0055999756,22.378900528000003,648,2.0,U,Africa/Johannesburg,airport,OurAirports
HDS,811,Hoedspruit Air Force Base Airport,Hoedspruit,South Africa,FAHS,-24.3686008453,31.048700332600003,1743,2.0,U,Africa/Johannesburg,airport,OurAirports
JNB,813,OR Tambo International Airport,Johannesburg,South Africa,FAJS,-26.1392,28.246,5558,2.0,U,Africa/Johannesburg,airport,OurAirports
KIM,815,Kimberley Airport,Kimberley,South Africa,FAKM,-28.802799224900003,24.765199661300002,3950,2.0,U,Africa/Johannesburg,airport,OurAirports
HLA,820,Lanseria Airport,Johannesburg,South Africa,FALA,-25.9384994507,27.926099777199997,4517,2.0,U,Africa/Johannesburg,airport,OurAirports
MGH,827,Margate Airport,Margate,South Africa,FAMG,-30.8574008942,30.343000412,495,2.0,U,Africa/Johannesburg,airport,OurAirports
PLZ,838,Port Elizabeth Airport,Port Elizabeth,South Africa,FAPE,-33.984901428200004,25.617300033600003,226,2.0,U,Africa/Johannesburg,airport,OurAirports
PHW,840,Hendrik Van Eck Airport,Phalaborwa,South Africa,FAPH,-23.9372005463,31.1553993225,1432,2.0,U,Africa/Johannesburg,airport,OurAirports
PZB,843,Pietermaritzburg Airport,Pietermaritzburg,South Africa,FAPM,-29.6490001678,30.3987007141,2423,2.0,U,Africa/Johannesburg,airport,OurAirports
PTG,845,Polokwane International Airport,Potgietersrus,South Africa,FAPP,-23.845269000000002,29.458615,4076,2.0,U,Africa/Johannesburg,airport,OurAirports
RCB,849,Richards Bay Airport,Richard's Bay,South Africa,FARB,-28.740999221800003,32.0920982361,109,2.0,U,Africa/Johannesburg,airport,OurAirports
UTN,865,Pierre Van Ryneveld Airport,Upington,South Africa,FAUP,-28.39909935,21.260200500499998,2782,2.0,U,Africa/Johannesburg,airport,OurAirports
UTT,866,K. D. Matanzima Airport,Umtata,South Africa,FAUT,-31.5463631849,28.6733551025,2400,2.0,U,Africa/Johannesburg,airport,OurAirports
FRW,877,Francistown Airport,Francistown,Botswana,FBFT,-21.15959930419922,27.47450065612793,3283,2.0,U,Africa/Gaborone,airport,OurAirports
BBK,879,Kasane Airport,Kasane,Botswana,FBKE,-17.83289909362793,25.16239929199219,3289,2.0,U,Africa/Gaborone,airport,OurAirports
MUB,880,Maun Airport,Maun,Botswana,FBMN,-19.97260093688965,23.431100845336914,3093,2.0,U,Africa/Gaborone,airport,OurAirports
GBE,881,Sir Seretse Khama International Airport,Gaberone,Botswana,FBSK,-24.55520057678223,25.91819953918457,3299,2.0,U,Africa/Gaborone,airport,OurAirports
BZV,883,Maya-Maya Airport,Brazzaville,Congo (Brazzaville),FCBB,-4.251699924468993,15.253000259399414,1048,1.0,N,Africa/Brazzaville,airport,OurAirports
PNR,886,Pointe Noire Airport,Pointe-noire,Congo (Brazzaville),FCPP,-4.816030025482178,11.88659954071045,55,1.0,N,Africa/Brazzaville,airport,OurAirports
MTS,887,Matsapha Airport,Manzini,Swaziland,FDMS,-26.52899932861328,31.3075008392334,2075,2.0,U,Africa/Mbabane,airport,OurAirports
BGF,888,Bangui M'Poko International Airport,Bangui,Central African Republic,FEFF,4.39847993850708,18.518800735473636,1208,1.0,N,Africa/Bangui,airport,OurAirports
BSG,890,Bata Airport,Bata,Equatorial Guinea,FGBT,1.9054700136184688,9.80568027496338,13,1.0,N,Africa/Malabo,airport,OurAirports
SSG,891,Malabo Airport,Malabo,Equatorial Guinea,FGSL,3.7552700042724614,8.708720207214355,76,1.0,N,Africa/Malabo,airport,OurAirports
MRU,893,Sir Seewoosagur Ramgoolam International Airport,Plaisance,Mauritius,FIMP,-20.430200576782227,57.68360137939453,186,4.0,N,Indian/Mauritius,airport,OurAirports
RRG,894,Sir Charles Gaetan Duval Airport,Rodriguez Island,Mauritius,FIMR,-19.757699966430664,63.361000061035156,95,4.0,N,Indian/Mauritius,airport,OurAirports
DLA,897,Douala International Airport,Douala,Cameroon,FKKD,4.0060801506,9.71947956085,33,1.0,N,Africa/Douala,airport,OurAirports
MVR,898,Salak Airport,Maroua,Cameroon,FKKL,10.45139980316162,14.257399559020994,1390,1.0,N,Africa/Douala,airport,OurAirports
NGE,900,N'Gaoundéré Airport,N'gaoundere,Cameroon,FKKN,7.357009887695312,13.559200286865234,3655,1.0,N,Africa/Douala,airport,OurAirports
GOU,901,Garoua International Airport,Garoua,Cameroon,FKKR,9.33588981628418,13.370100021362305,794,1.0,N,Africa/Douala,airport,OurAirports
LVI,906,Livingstone Airport,Livingstone,Zambia,FLLI,-17.821800231933594,25.82270050048828,3302,2.0,U,Africa/Lusaka,airport,OurAirports
LUN,907,Kenneth Kaunda International Airport Lusaka,Lusaka,Zambia,FLLS,-15.330800056500001,28.4526004791,3779,2.0,U,Africa/Lusaka,airport,OurAirports
MFU,908,Mfuwe Airport,Mfuwe,Zambia,FLMF,-13.258899688720705,31.93659973144531,1853,2.0,U,Africa/Lusaka,airport,OurAirports
NLA,910,Simon Mwansa Kapwepwe International Airport,Ndola,Zambia,FLND,-12.998100280762,28.66489982605,4167,2.0,U,Africa/Lusaka,airport,OurAirports
HAH,912,Prince Said Ibrahim International Airport,Moroni,Comoros,FMCH,-11.5337,43.2719,93,3.0,U,Indian/Comoro,airport,OurAirports
DZA,915,Dzaoudzi Pamandzi International Airport,Dzaoudzi,Mayotte,FMCZ,-12.804699897766113,45.28110122680664,23,3.0,U,Indian/Mayotte,airport,OurAirports
RUN,916,Roland Garros Airport,St.-denis,Reunion,FMEE,-20.88710021972656,55.51029968261719,66,4.0,U,Indian/Reunion,airport,OurAirports
ZSE,917,Pierrefonds Airport,St.-pierre,Reunion,FMEP,-21.320899963378906,55.42499923706055,59,4.0,U,Indian/Reunion,airport,OurAirports
TNR,918,Ivato Airport,Antananarivo,Madagascar,FMMI,-18.7968997955,47.478801727299995,4198,3.0,U,Indian/Antananarivo,airport,OurAirports
SMS,920,Sainte Marie Airport,Sainte Marie,Madagascar,FMMS,-17.093900680541992,49.81579971313477,7,3.0,U,Indian/Antananarivo,airport,OurAirports
TMM,921,Toamasina Airport,Toamasina,Madagascar,FMMT,-18.109500885009766,49.39250183105469,22,3.0,U,Indian/Antananarivo,airport,OurAirports
MOQ,922,Morondava Airport,Morondava,Madagascar,FMMV,-20.28470039367676,44.31760025024414,30,3.0,U,Indian/Antananarivo,airport,OurAirports
DIE,923,Arrachart Airport,Antsiranana,Madagascar,FMNA,-12.34939956665039,49.29169845581055,374,3.0,U,Indian/Antananarivo,airport,OurAirports
WMR,924,Mananara Nord Airport,Mananara,Madagascar,FMNC,-16.16390037536621,49.77379989624024,9,3.0,U,Indian/Antananarivo,airport,OurAirports
ANM,927,Antsirabato Airport,Antalaha,Madagascar,FMNH,-14.99940013885498,50.3202018737793,20,3.0,U,Indian/Antananarivo,airport,OurAirports
MJN,929,Amborovy Airport,Mahajanga,Madagascar,FMNM,-15.6668417421,46.351232528699995,87,3.0,U,Indian/Antananarivo,airport,OurAirports
NOS,930,Fascene Airport,Nosy-be,Madagascar,FMNN,-13.3121004105,48.3148002625,36,3.0,U,Indian/Antananarivo,airport,OurAirports
WMN,932,Maroantsetra Airport,Maroantsetra,Madagascar,FMNR,-15.436699867248535,49.68830108642578,13,3.0,U,Indian/Antananarivo,airport,OurAirports
SVB,933,Sambava Airport,Sambava,Madagascar,FMNS,-14.278599739074707,50.17470169067383,20,3.0,U,Indian/Antananarivo,airport,OurAirports
FTU,937,Tôlanaro Airport,Tolagnaro,Madagascar,FMSD,-25.03809928894043,46.95610046386719,29,3.0,U,Indian/Antananarivo,airport,OurAirports
TLE,943,Toliara Airport,Toliara,Madagascar,FMST,-23.383399963378906,43.72850036621094,29,3.0,U,Indian/Antananarivo,airport,OurAirports
SSY,944,Mbanza Congo Airport,M'banza-congo,Angola,FNBC,-6.269899845123291,14.246999740600586,1860,1.0,N,Africa/Luanda,airport,OurAirports
CAB,946,Cabinda Airport,Cabinda,Angola,FNCA,-5.59699010848999,12.188400268554688,66,1.0,N,Africa/Luanda,airport,OurAirports
NOV,948,Nova Lisboa Airport,Huambo,Angola,FNHU,-12.808899879455565,15.760499954223633,5587,1.0,N,Africa/Luanda,airport,OurAirports
SVP,949,Kuito Airport,Kuito,Angola,FNKU,-12.404600143433,16.947399139404,5618,1.0,N,Africa/Luanda,airport,OurAirports
LAD,951,Quatro de Fevereiro Airport,Luanda,Angola,FNLU,-8.85836982727,13.231200218199996,243,1.0,N,Africa/Luanda,airport,OurAirports
MEG,952,Malanje Airport,Malanje,Angola,FNMA,-9.525090217590332,16.312400817871097,3868,1.0,N,Africa/Luanda,airport,OurAirports
SPP,953,Menongue Airport,Menongue,Angola,FNME,-14.657600402832033,17.71980094909668,4469,1.0,N,Africa/Luanda,airport,OurAirports
VHC,957,Saurimo Airport,Saurimo,Angola,FNSA,-9.689069747924805,20.431900024414066,3584,1.0,N,Africa/Luanda,airport,OurAirports
SZA,958,Soyo Airport,Soyo,Angola,FNSO,-6.141089916229247,12.371800422668455,15,1.0,N,Africa/Luanda,airport,OurAirports
SDD,959,Lubango Airport,Lubango,Angola,FNUB,-14.924699783325195,13.574999809265135,5778,1.0,N,Africa/Luanda,airport,OurAirports
LUO,960,Luena Airport,Luena,Angola,FNUE,-11.768099784851074,19.8976993560791,4360,1.0,N,Africa/Luanda,airport,OurAirports
POG,967,Port Gentil Airport,Port Gentil,Gabon,FOOG,-0.7117390036582947,8.754380226135254,13,1.0,N,Africa/Libreville,airport,OurAirports
LBV,970,Libreville Leon M'ba International Airport,Libreville,Gabon,FOOL,0.45860001444799997,9.4122800827,39,1.0,N,Africa/Libreville,airport,OurAirports
TMS,973,São Tomé International Airport,Sao Tome,Sao Tome and Principe,FPST,0.3781749904155731,6.712150096893311,33,0.0,N,Africa/Sao_Tome,airport,OurAirports
BEW,974,Beira Airport,Beira,Mozambique,FQBR,-19.79640007019043,34.90760040283203,33,2.0,U,Africa/Maputo,airport,OurAirports
INH,976,Inhambane Airport,Inhambane,Mozambique,FQIN,-23.876399993896484,35.40850067138672,30,2.0,U,Africa/Maputo,airport,OurAirports
VXC,977,Lichinga Airport,Lichinga,Mozambique,FQLC,-13.27400016784668,35.266300201416016,4505,2.0,U,Africa/Maputo,airport,OurAirports
MPM,979,Maputo Airport,Maputo,Mozambique,FQMA,-25.92079925537109,32.57260131835937,145,2.0,U,Africa/Maputo,airport,OurAirports
APL,984,Nampula Airport,Nampula,Mozambique,FQNP,-15.105600357055664,39.28179931640625,1444,2.0,U,Africa/Maputo,airport,OurAirports
POL,985,Pemba Airport,Pemba,Mozambique,FQPB,-12.991762161254885,40.52401351928711,331,2.0,U,Africa/Maputo,airport,OurAirports
UEL,986,Quelimane Airport,Quelimane,Mozambique,FQQL,-17.855499267578125,36.86909866333008,36,2.0,U,Africa/Maputo,airport,OurAirports
TET,988,Chingozi Airport,Tete,Mozambique,FQTT,-16.104799270629886,33.64020156860352,525,2.0,U,Africa/Maputo,airport,OurAirports
VNX,990,Vilankulo Airport,Vilankulu,Mozambique,FQVL,-22.018400192260746,35.31330108642578,46,2.0,U,Africa/Maputo,airport,OurAirports
SEZ,994,Seychelles International Airport,Mahe,Seychelles,FSIA,-4.674339771270752,55.52180099487305,10,4.0,U,Indian/Mahe,airport,OurAirports
PRI,995,Praslin Airport,Praslin,Seychelles,FSPP,-4.3192901611328125,55.69139862060547,10,4.0,U,Indian/Mahe,airport,OurAirports
NDJ,999,N'Djamena International Airport,N'djamena,Chad,FTTJ,12.133700370788574,15.034000396728516,968,1.0,N,Africa/Ndjamena,airport,OurAirports
BUQ,1001,Joshua Mqabuko Nkomo International Airport,Bulawayo,Zimbabwe,FVBU,-20.01740074157715,28.617900848388672,4359,2.0,U,Africa/Harare,airport,OurAirports
VFA,1004,Victoria Falls International Airport,Victoria Falls,Zimbabwe,FVFA,-18.09589958190918,25.839000701904297,3490,2.0,U,Africa/Harare,airport,OurAirports
HRE,1005,Harare International Airport,Harare,Zimbabwe,FVHA,-17.931800842285156,31.09280014038086,4887,2.0,U,Africa/Harare,airport,OurAirports
BLZ,1013,Chileka International Airport,Blantyre,Malawi,FWCL,-15.679100036621096,34.9739990234375,2555,2.0,U,Africa/Blantyre,airport,OurAirports
LLW,1016,Lilongwe International Airport,Lilongwe,Malawi,FWKI,-13.7894001007,33.78099823,4035,2.0,U,Africa/Blantyre,airport,OurAirports
MSU,1018,Moshoeshoe I International Airport,Maseru,Lesotho,FXMM,-29.462299346923828,27.552499771118164,5348,2.0,U,Africa/Maseru,airport,OurAirports
FIH,1020,Ndjili International Airport,Kinshasa,Congo (Kinshasa),FZAA,-4.38574981689,15.4446001053,1027,1.0,N,Africa/Kinshasa,airport,OurAirports
MDK,1026,Mbandaka Airport,Mbandaka,Congo (Kinshasa),FZEA,0.0226000007242,18.2887001038,1040,1.0,N,Africa/Kinshasa,airport,OurAirports
GMA,1028,Gemena Airport,Gemena,Congo (Kinshasa),FZFK,3.23536992073,19.7712993622,1378,1.0,N,Africa/Kinshasa,airport,OurAirports
FKI,1031,Bangoka International Airport,Kisangani,Congo (Kinshasa),FZIC,0.48163899779299996,25.337999343899998,1417,2.0,U,Africa/Lubumbashi,airport,OurAirports
IRP,1032,Matari Airport,Isiro,Congo (Kinshasa),FZJH,2.8276100158691406,27.58830070495605,2438,2.0,U,Africa/Lubumbashi,airport,OurAirports
BUX,1033,Bunia Airport,Bunia,Congo (Kinshasa),FZKA,1.5657199621200562,30.220800399780273,4045,2.0,U,Africa/Lubumbashi,airport,OurAirports
BKY,1035,Bukavu Kavumu Airport,Bukavu/kavumu,Congo (Kinshasa),FZMA,-2.3089799880981445,28.808799743652344,5643,2.0,U,Africa/Lubumbashi,airport,OurAirports
GOM,1036,Goma International Airport,Goma,Congo (Kinshasa),FZNA,-1.670809984207153,29.23850059509277,5089,2.0,U,Africa/Kigali,airport,OurAirports
KND,1037,Kindu Airport,Kindu,Congo (Kinshasa),FZOA,-2.91917991638,25.9153995514,1630,2.0,U,Africa/Lubumbashi,airport,OurAirports
FBM,1038,Lubumbashi International Airport,Lubumashi,Congo (Kinshasa),FZQA,-11.5913000107,27.5308990479,4295,2.0,U,Africa/Lubumbashi,airport,OurAirports
FMI,1040,Kalemie Airport,Kalemie,Congo (Kinshasa),FZRF,-5.8755598068237305,29.25,2569,2.0,U,Africa/Lubumbashi,airport,OurAirports
KGA,1042,Kananga Airport,Kananga,Congo (Kinshasa),FZUA,-5.90005016327,22.4692001343,2139,2.0,U,Africa/Lubumbashi,airport,OurAirports
MJM,1043,Mbuji Mayi Airport,Mbuji-mayi,Congo (Kinshasa),FZWA,-6.121240139010001,23.5690002441,2221,2.0,U,Africa/Lubumbashi,airport,OurAirports
BKO,1044,Senou Airport,Bamako,Mali,GABS,12.533499717712402,-7.949940204620361,1247,0.0,N,Africa/Bamako,airport,OurAirports
BJL,1050,Banjul International Airport,Banjul,Gambia,GBYD,13.338000297546387,-16.65220069885254,95,0.0,N,Africa/Banjul,airport,OurAirports
FUE,1051,Fuerteventura Airport,Fuerteventura,Spain,GCFV,28.452699661254886,-13.863800048828125,85,0.0,E,Atlantic/Canary,airport,OurAirports
VDE,1052,Hierro Airport,Hierro,Spain,GCHI,27.814800262451172,-17.887100219726562,103,0.0,E,Atlantic/Canary,airport,OurAirports
SPC,1053,La Palma Airport,Santa Cruz De La Palma,Spain,GCLA,28.62649917602539,-17.755599975585938,107,0.0,E,Atlantic/Canary,airport,OurAirports
LPA,1054,Gran Canaria Airport,Gran Canaria,Spain,GCLP,27.931900024414066,-15.38659954071045,78,0.0,E,Atlantic/Canary,airport,OurAirports
ACE,1055,Lanzarote Airport,Arrecife,Spain,GCRR,28.945499420166016,-13.605199813842773,46,0.0,E,Atlantic/Canary,airport,OurAirports
TFS,1056,Tenerife South Airport,Tenerife,Spain,GCTS,28.044500351,-16.5725002289,209,0.0,E,Atlantic/Canary,airport,OurAirports
TFN,1057,Tenerife Norte Airport,Tenerife,Spain,GCXO,28.4827003479,-16.341499328599998,2076,0.0,E,Atlantic/Canary,airport,OurAirports
MLN,1058,Melilla Airport,Melilla,Spain,GEML,35.279800415,-2.9562599658999997,156,1.0,E,Europe/Madrid,airport,OurAirports
FNA,1059,Lungi International Airport,Freetown,Sierra Leone,GFLL,8.616439819335938,-13.195500373840332,84,0.0,N,Africa/Freetown,airport,OurAirports
MLW,1062,Spriggs Payne Airport,Monrovia,Liberia,GLMR,6.289060115814209,-10.758700370788574,25,0.0,N,Africa/Monrovia,airport,OurAirports
ROB,1063,Roberts International Airport,Monrovia,Liberia,GLRB,6.233789920806885,-10.362299919128418,31,0.0,N,Africa/Monrovia,airport,OurAirports
AGA,1064,Al Massira Airport,Agadir,Morocco,GMAD,30.32500076293945,-9.41306972503662,250,0.0,N,Africa/Casablanca,airport,OurAirports
TTA,1065,Tan Tan Airport,Tan Tan,Morocco,GMAT,28.448200225830078,-11.161299705505373,653,0.0,N,Africa/Casablanca,airport,OurAirports
FEZ,1066,Saïss Airport,Fes,Morocco,GMFF,33.927299499499995,-4.977960109709999,1900,0.0,N,Africa/Casablanca,airport,OurAirports
OUD,1070,Angads Airport,Oujda,Morocco,GMFO,34.78720092773437,-1.92399001121521,1535,0.0,N,Africa/Casablanca,airport,OurAirports
RBA,1072,Rabat-Salé Airport,Rabat,Morocco,GMME,34.051498413085945,-6.7515201568603525,276,0.0,N,Africa/Casablanca,airport,OurAirports
CMN,1074,Mohammed V International Airport,Casablanca,Morocco,GMMN,33.36750030517578,-7.589970111846924,656,0.0,N,Africa/Casablanca,airport,OurAirports
RAK,1075,Menara Airport,Marrakech,Morocco,GMMX,31.6068992615,-8.036299705510002,1545,0.0,N,Africa/Casablanca,airport,OurAirports
OZZ,1077,Ouarzazate Airport,Ouarzazate,Morocco,GMMZ,30.939100265500002,-6.909430027010001,3782,0.0,N,Africa/Casablanca,airport,OurAirports
AHU,1078,Cherif Al Idrissi Airport,Al Hociema,Morocco,GMTA,35.177101135253906,-3.83951997756958,95,0.0,N,Africa/Casablanca,airport,OurAirports
TTU,1079,Saniat R'mel Airport,Tetouan,Morocco,GMTN,35.594299316406,-5.320020198822,10,0.0,N,Africa/Casablanca,airport,OurAirports
TNG,1080,Ibn Batouta Airport,Tanger,Morocco,GMTT,35.726898193400004,-5.916890144349999,62,0.0,N,Africa/Casablanca,airport,OurAirports
ZIG,1081,Ziguinchor Airport,Ziguinchor,Senegal,GOGG,12.5556,-16.281799,75,0.0,N,Africa/Dakar,airport,OurAirports
CSK,1082,Cap Skirring Airport,Cap Skiring,Senegal,GOGS,12.410200119018555,-16.746099472045902,52,0.0,N,Africa/Dakar,airport,OurAirports
DKR,1084,Léopold Sédar Senghor International Airport,Dakar,Senegal,GOOY,14.739700317382812,-17.49020004272461,85,0.0,N,Africa/Dakar,airport,OurAirports
NKC,1094,Nouakchott International Airport,Nouakschott,Mauritania,GQNN,18.09819984436035,-15.94849967956543,13,0.0,N,Africa/Nouakchott,airport,OurAirports
NDB,1097,Nouadhibou International Airport,Nouadhibou,Mauritania,GQPP,20.9330997467041,-17.030000686645508,24,0.0,N,Africa/Nouakchott,airport,OurAirports
SID,1102,Amílcar Cabral International Airport,Amilcar Cabral,Cape Verde,GVAC,16.741399765014652,-22.94939994812012,177,-1.0,U,Atlantic/Cape_Verde,airport,OurAirports
BVC,1103,Rabil Airport,Boa Vista,Cape Verde,GVBA,16.136499404907227,-22.888900756835934,69,-1.0,U,Atlantic/Cape_Verde,airport,OurAirports
MMO,1104,Maio Airport,Maio,Cape Verde,GVMA,15.15590000152588,-23.21369934082031,36,-1.0,U,Atlantic/Cape_Verde,airport,OurAirports
SNE,1105,Preguiça Airport,Sao Nocolau Island,Cape Verde,GVSN,16.58839988708496,-24.28470039367676,669,-1.0,U,Atlantic/Cape_Verde,airport,OurAirports
VXE,1106,São Pedro Airport,Sao Vicente Island,Cape Verde,GVSV,16.833200454711914,-25.05529975891113,66,-1.0,U,Atlantic/Cape_Verde,airport,OurAirports
ADD,1107,Addis Ababa Bole International Airport,Addis Ababa,Ethiopia,HAAB,8.97789001465,38.7993011475,7630,3.0,U,Africa/Addis_Ababa,airport,OurAirports
AMH,1109,Arba Minch Airport,Arba Minch,Ethiopia,HAAM,6.0393900871276855,37.59049987792969,3901,3.0,U,Africa/Addis_Ababa,airport,OurAirports
AXU,1110,Axum Airport,Axum,Ethiopia,HAAX,14.14680004119873,38.77280044555664,6959,3.0,U,Africa/Addis_Ababa,airport,OurAirports
BJR,1111,Bahir Dar Airport,Bahar Dar,Ethiopia,HABD,11.608099937438965,37.32160186767578,5978,3.0,U,Africa/Addis_Ababa,airport,OurAirports
DIR,1112,Aba Tenna Dejazmach Yilma International Airport,Dire Dawa,Ethiopia,HADR,9.624699592590332,41.85419845581055,3827,3.0,U,Africa/Addis_Ababa,airport,OurAirports
GMB,1113,Gambella Airport,Gambella,Ethiopia,HAGM,8.12876033782959,34.563098907470696,1614,3.0,U,Africa/Addis_Ababa,airport,OurAirports
GDQ,1114,Gonder Airport,Gondar,Ethiopia,HAGN,12.51990032196045,37.433998107910156,6449,3.0,U,Africa/Addis_Ababa,airport,OurAirports
JIM,1116,Jimma Airport,Jimma,Ethiopia,HAJM,7.66609001159668,36.81660079956055,5500,3.0,U,Africa/Addis_Ababa,airport,OurAirports
LLI,1117,Lalibella Airport,Lalibella,Ethiopia,HALL,11.975000381469727,38.97999954223633,6506,3.0,U,Africa/Addis_Ababa,airport,OurAirports
MQX,1118,Mekele Airport,Makale,Ethiopia,HAMK,13.467399597167967,39.53350067138672,7396,3.0,U,Africa/Addis_Ababa,airport,OurAirports
ASO,1119,Asosa Airport,Asosa,Ethiopia,HASO,10.018500328063963,34.586299896240234,5100,3.0,U,Africa/Addis_Ababa,airport,OurAirports
BJM,1120,Bujumbura International Airport,Bujumbura,Burundi,HBBA,-3.3240199089050293,29.318500518798828,2582,2.0,U,Africa/Bujumbura,airport,OurAirports
HGA,1121,Egal International Airport,Hargeisa,Somalia,HCMH,9.518170356750488,44.08879852294922,4423,3.0,U,Africa/Mogadishu,airport,OurAirports
BBO,1122,Berbera Airport,Berbera,Somalia,HCMI,10.389200210571287,44.94110107421875,30,3.0,U,Africa/Mogadishu,airport,OurAirports
ABS,1127,Abu Simbel Airport,Abu Simbel,Egypt,HEBL,22.3759994507,31.611700058,616,2.0,U,Africa/Cairo,airport,OurAirports
CAI,1128,Cairo International Airport,Cairo,Egypt,HECA,30.12190055847168,31.40559959411621,382,2.0,U,Africa/Cairo,airport,OurAirports
HRG,1130,Hurghada International Airport,Hurghada,Egypt,HEGN,27.178300857543945,33.799400329589844,52,2.0,U,Africa/Cairo,airport,OurAirports
LXR,1132,Luxor International Airport,Luxor,Egypt,HELX,25.670999527,32.7066001892,294,2.0,U,Africa/Cairo,airport,OurAirports
ASW,1136,Aswan International Airport,Aswan,Egypt,HESN,23.964399337800003,32.8199996948,662,2.0,U,Africa/Cairo,airport,OurAirports
EDL,1138,Eldoret International Airport,Eldoret,Kenya,HKEL,0.4044579863548279,35.23889923095703,6941,3.0,U,Africa/Nairobi,airport,OurAirports
KIS,1140,Kisumu Airport,Kisumu,Kenya,HKKI,-0.0861390009522438,34.72890090942383,3734,3.0,U,Africa/Nairobi,airport,OurAirports
KTL,1141,Kitale Airport,Kitale,Kenya,HKKT,0.9719889760017396,34.95859909057617,6070,3.0,U,Africa/Nairobi,airport,OurAirports
LOK,1143,Lodwar Airport,Lodwar,Kenya,HKLO,3.1219699382781982,35.608699798583984,1715,3.0,U,Africa/Nairobi,airport,OurAirports
LAU,1144,Manda Airstrip,Lamu,Kenya,HKLU,-2.252419948577881,40.91310119628906,20,3.0,U,Africa/Nairobi,airport,OurAirports
MBA,1145,Mombasa Moi International Airport,Mombasa,Kenya,HKMO,-4.034830093383788,39.594200134277344,200,3.0,U,Africa/Nairobi,airport,OurAirports
WIL,1147,Nairobi Wilson Airport,Nairobi,Kenya,HKNW,-1.3217200040817259,36.81480026245117,5536,3.0,U,Africa/Nairobi,airport,OurAirports
WJR,1149,Wajir Airport,Wajir,Kenya,HKWJ,1.7332400083541868,40.09159851074219,770,3.0,U,Africa/Nairobi,airport,OurAirports
GHT,1152,Ghat Airport,Ghat,Libya,HLGT,25.1455993652,10.142600059500001,2296,2.0,N,Africa/Tripoli,airport,OurAirports
AKF,1153,Kufra Airport,Kufra,Libya,HLKF,24.178699493408203,23.31399917602539,1367,2.0,N,Africa/Tripoli,airport,OurAirports
BEN,1154,Benina International Airport,Benghazi,Libya,HLLB,32.096801757799994,20.2695007324,433,2.0,N,Africa/Tripoli,airport,OurAirports
TIP,1157,Tripoli International Airport,Tripoli,Libya,HLLT,32.6635017395,13.159000396700002,263,2.0,N,Africa/Tripoli,airport,OurAirports
LTD,1162,Ghadames East Airport,Ghadames,Libya,HLTD,30.15169906616211,9.715310096740724,1122,2.0,N,Africa/Tripoli,airport,OurAirports
KGL,1165,Kigali International Airport,Kigali,Rwanda,HRYR,-1.96862995625,30.139499664299997,4859,2.0,U,Africa/Kigali,airport,OurAirports
KME,1166,Kamembe Airport,Kamembe,Rwanda,HRZA,-2.462239980697632,28.907899856567386,5192,2.0,U,Africa/Kigali,airport,OurAirports
ELF,1169,El Fasher Airport,El Fasher,Sudan,HSFS,13.61489963531494,25.32460021972656,2393,3.0,U,Africa/Khartoum,airport,OurAirports
JUB,1173,Juba International Airport,Juba,South Sudan,HSSJ,4.87201023102,31.601100921599997,1513,3.0,U,Africa/Juba,airport,OurAirports
KRT,1175,Khartoum International Airport,Khartoum,Sudan,HSSS,15.589500427246096,32.55319976806641,1265,3.0,U,Africa/Khartoum,airport,OurAirports
ARK,1176,Arusha Airport,Arusha,Tanzania,HTAR,-3.3677899837493896,36.63330078125,4550,3.0,U,Africa/Dar_es_Salaam,airport,OurAirports
DAR,1177,Julius Nyerere International Airport,Dar Es Salaam,Tanzania,HTDA,-6.87810993195,39.202598571799996,182,3.0,U,Africa/Dar_es_Salaam,airport,OurAirports
JRO,1180,Kilimanjaro International Airport,Kilimanjaro,Tanzania,HTKJ,-3.42940998077,37.0745010376,2932,3.0,U,Africa/Dar_es_Salaam,airport,OurAirports
MYW,1182,Mtwara Airport,Mtwara,Tanzania,HTMT,-10.339099884033203,40.181800842285156,371,3.0,U,Africa/Dar_es_Salaam,airport,OurAirports
MWZ,1183,Mwanza Airport,Mwanza,Tanzania,HTMW,-2.4444899559021,32.932701110839844,3763,3.0,U,Africa/Dar_es_Salaam,airport,OurAirports
ZNZ,1186,Abeid Amani Karume International Airport,Zanzibar,Tanzania,HTZA,-6.222020149229999,39.224899291999996,54,3.0,U,Africa/Dar_es_Salaam,airport,OurAirports
EBB,1187,Entebbe International Airport,Entebbe,Uganda,HUEN,0.04238599911332129,32.44350051879883,3782,3.0,U,Africa/Kampala,airport,OurAirports
TIA,1190,Tirana International Airport Mother Teresa,Tirana,Albania,LATI,41.4146995544,19.7206001282,126,1.0,E,Europe/Tirane,airport,OurAirports
BOJ,1191,Burgas Airport,Bourgas,Bulgaria,LBBG,42.56959915161133,27.515199661254886,135,2.0,E,Europe/Sofia,airport,OurAirports
PDV,1193,Plovdiv International Airport,Plovdiv,Bulgaria,LBPD,42.067799,24.8508,597,2.0,E,Europe/Sofia,airport,OurAirports
SOF,1194,Sofia Airport,Sofia,Bulgaria,LBSF,42.696693420410156,23.411436080932614,1742,2.0,E,Europe/Sofia,airport,OurAirports
VAR,1196,Varna Airport,Varna,Bulgaria,LBWN,43.232101,27.8251,230,2.0,E,Europe/Sofia,airport,OurAirports
LCA,1197,Larnaca International Airport,Larnaca,Cyprus,LCLK,34.875099182128906,33.62490081787109,8,2.0,E,Asia/Nicosia,airport,OurAirports
PFO,1198,Paphos International Airport,Paphos,Cyprus,LCPH,34.71799850463867,32.48569869995117,41,2.0,E,Asia/Nicosia,airport,OurAirports
DBV,1200,Dubrovnik Airport,Dubrovnik,Croatia,LDDU,42.5614013671875,18.268199920654297,527,1.0,E,Europe/Zagreb,airport,OurAirports
OSI,1202,Osijek Airport,Osijek,Croatia,LDOS,45.46269989013672,18.810199737548828,290,1.0,E,Europe/Zagreb,airport,OurAirports
PUY,1203,Pula Airport,Pula,Croatia,LDPL,44.89350128173828,13.922200202941895,274,1.0,E,Europe/Zagreb,airport,OurAirports
RJK,1205,Rijeka Airport,Rijeka,Croatia,LDRI,45.21689987182617,14.570300102233887,278,1.0,E,Europe/Zagreb,airport,OurAirports
SPU,1206,Split Airport,Split,Croatia,LDSP,43.53889846801758,16.29800033569336,79,1.0,E,Europe/Zagreb,airport,OurAirports
ZAG,1208,Zagreb Airport,Zagreb,Croatia,LDZA,45.742900848400005,16.0687999725,353,1.0,E,Europe/Zagreb,airport,OurAirports
ZAD,1209,Zemunik Airport,Zadar,Croatia,LDZD,44.108299255371094,15.346699714660645,289,1.0,E,Europe/Zagreb,airport,OurAirports
ALC,1212,Alicante International Airport,Alicante,Spain,LEAL,38.28219985961914,-0.5581560134887695,142,1.0,E,Europe/Madrid,airport,OurAirports
LEI,1213,Almería International Airport,Almeria,Spain,LEAM,36.84389877319336,-2.3701000213623047,70,1.0,E,Europe/Madrid,airport,OurAirports
OVD,1214,Asturias Airport,Aviles,Spain,LEAS,43.5635986328125,-6.0346198081970215,416,1.0,E,Europe/Madrid,airport,OurAirports
BIO,1216,Bilbao Airport,Bilbao,Spain,LEBB,43.30110168457031,-2.9106099605560303,138,1.0,E,Europe/Madrid,airport,OurAirports
BCN,1218,Barcelona International Airport,Barcelona,Spain,LEBL,41.297100067139,2.0784599781036,12,1.0,E,Europe/Madrid,airport,OurAirports
BJZ,1219,Badajoz Airport,Badajoz,Spain,LEBZ,38.891300201416016,-6.8213300704956055,609,1.0,E,Europe/Madrid,airport,OurAirports
LCG,1220,A Coruña Airport,La Coruna,Spain,LECO,43.302101135253906,-8.377260208129883,326,1.0,E,Europe/Madrid,airport,OurAirports
GRO,1222,Girona Airport,Gerona,Spain,LEGE,41.901000976999995,2.7605500221,468,1.0,E,Europe/Madrid,airport,OurAirports
GRX,1223,Federico Garcia Lorca Airport,Granada,Spain,LEGR,37.18870162963867,-3.777359962463379,1860,1.0,E,Europe/Madrid,airport,OurAirports
IBZ,1225,Ibiza Airport,Ibiza,Spain,LEIB,38.8728981018,1.3731199502899998,24,1.0,E,Europe/Madrid,airport,OurAirports
XRY,1226,Jerez Airport,Jerez,Spain,LEJR,36.74459838867188,-6.060110092163086,93,1.0,E,Europe/Madrid,airport,OurAirports
MJV,1227,San Javier Airport,Murcia,Spain,LELC,37.775001525878906,-0.8123890161514282,11,1.0,E,Europe/Madrid,airport,OurAirports
MAD,1229,Adolfo Suárez Madrid–Barajas Airport,Madrid,Spain,LEMD,40.471926,-3.56264,1998,1.0,E,Europe/Madrid,airport,OurAirports
AGP,1230,Málaga Airport,Malaga,Spain,LEMG,36.67490005493164,-4.499110221862793,53,1.0,E,Europe/Madrid,airport,OurAirports
MAH,1231,Menorca Airport,Menorca,Spain,LEMH,39.86259841918945,4.2186498641967765,302,1.0,E,Europe/Madrid,airport,OurAirports
PNA,1234,Pamplona Airport,Pamplona,Spain,LEPP,42.77000045776367,-1.6463299989700315,1504,1.0,E,Europe/Madrid,airport,OurAirports
REU,1236,Reus Air Base,Reus,Spain,LERS,41.14739990234375,1.1671700477600098,233,1.0,E,Europe/Madrid,airport,OurAirports
SLM,1238,Salamanca Airport,Salamanca,Spain,LESA,40.95209884643555,-5.501989841461182,2595,1.0,E,Europe/Madrid,airport,OurAirports
EAS,1242,San Sebastian Airport,San Sebastian,Spain,LESO,43.35649871826172,-1.7906099557876587,16,1.0,E,Europe/Madrid,airport,OurAirports
SCQ,1243,Santiago de Compostela Airport,Santiago,Spain,LEST,42.89630126953125,-8.415140151977539,1213,1.0,E,Europe/Madrid,airport,OurAirports
VLC,1246,Valencia Airport,Valencia,Spain,LEVC,39.48929977416992,-0.4816249907016754,240,1.0,E,Europe/Madrid,airport,OurAirports
VLL,1247,Valladolid Airport,Valladolid,Spain,LEVD,41.7061004639,-4.85194015503,2776,1.0,E,Europe/Madrid,airport,OurAirports
VGO,1250,Vigo Airport,Vigo,Spain,LEVX,42.2318000793457,-8.62677001953125,856,1.0,E,Europe/Madrid,airport,OurAirports
SDR,1251,Santander Airport,Santander,Spain,LEXJ,43.427101135253906,-3.82000994682312,16,1.0,E,Europe/Madrid,airport,OurAirports
ZAZ,1252,Zaragoza Air Base,Zaragoza,Spain,LEZG,41.66619873046875,-1.0415500402450562,863,1.0,E,Europe/Madrid,airport,OurAirports
SVQ,1253,Sevilla Airport,Sevilla,Spain,LEZL,37.41799926757813,-5.8931097984313965,112,1.0,E,Europe/Madrid,airport,OurAirports
AGF,1262,Agen-La Garenne Airport,Agen,France,LFBA,44.17470169067383,0.5905560255050659,204,1.0,E,Europe/Paris,airport,OurAirports
BOD,1264,Bordeaux-Mérignac Airport,Bordeaux,France,LFBD,44.8283004761,-0.7155560255050001,162,1.0,E,Europe/Paris,airport,OurAirports
EGC,1265,Bergerac-Roumanière Airport,Bergerac,France,LFBE,44.82529830932617,0.5186110138893127,171,1.0,E,Europe/Paris,airport,OurAirports
PIS,1268,Poitiers-Biard Airport,Poitiers,France,LFBI,46.58769989013672,0.30666598677635193,423,1.0,E,Europe/Paris,airport,OurAirports
LIG,1270,Limoges Airport,Limoges,France,LFBL,45.86280059814453,1.1794400215148926,1300,1.0,E,Europe/Paris,airport,OurAirports
TLS,1273,Toulouse-Blagnac Airport,Toulouse,France,LFBO,43.629101,1.36382,499,1.0,E,Europe/Paris,airport,OurAirports
PUF,1274,Pau Pyrénées Airport,Pau,France,LFBP,43.38000106811523,-0.4186109900474548,616,1.0,E,Europe/Paris,airport,OurAirports
LDE,1276,Tarbes-Lourdes-Pyrénées Airport,Tarbes,France,LFBT,43.1786994934082,-0.006438999902456999,1260,1.0,E,Europe/Paris,airport,OurAirports
ANG,1277,Angoulême-Brie-Champniers Airport,Angouleme,France,LFBU,45.72919845581055,0.22145600616931915,436,1.0,E,Europe/Paris,airport,OurAirports
BVE,1278,Toul Rosières Air Base,Brive,France,LFSL,48.780001,5.980003,936,1.0,E,Europe/Paris,airport,OurAirports
PGX,1279,Périgueux-Bassillac Airport,Perigueux,France,LFBX,45.19810104370117,0.815555989742279,328,1.0,E,Europe/Paris,airport,OurAirports
BIQ,1280,Biarritz-Anglet-Bayonne Airport,Biarritz-bayonne,France,LFBZ,43.4683333,-1.5311111000000002,245,1.0,E,Europe/Paris,airport,OurAirports
DCM,1285,Castres-Mazamet Airport,Castres,France,LFCK,43.55630111694336,2.289180040359497,788,1.0,E,Europe/Paris,airport,OurAirports
RDZ,1289,Rodez-Marcillac Airport,Rodez,France,LFCR,44.407901763916016,2.4826700687408447,1910,1.0,E,Europe/Paris,airport,OurAirports
DLE,1309,Dole-Tavaux Airport,Dole,France,LFGJ,47.042685999999996,5.435061,645,1.0,E,Europe/Paris,airport,OurAirports
LPY,1313,Le Puy-Loudes Airport,Le Puy,France,LFHP,45.0806999206543,3.7628901004791264,2731,1.0,E,Europe/Paris,airport,OurAirports
ETZ,1320,Metz-Nancy-Lorraine Airport,Metz,France,LFJL,48.9821014404,6.25131988525,870,1.0,E,Europe/Paris,airport,OurAirports
BIA,1321,Bastia-Poretta Airport,Bastia,France,LFKB,42.55270004272461,9.48373031616211,26,1.0,E,Europe/Paris,airport,OurAirports
CLY,1322,Calvi-Sainte-Catherine Airport,Calvi,France,LFKC,42.52444439999999,8.793055599999999,209,1.0,E,Europe/Paris,airport,OurAirports
FSC,1323,Figari Sud-Corse Airport,Figari,France,LFKF,41.5005989074707,9.097780227661133,87,1.0,E,Europe/Paris,airport,OurAirports
AJA,1324,Ajaccio-Napoléon Bonaparte Airport,Ajaccio,France,LFKJ,41.92359924316406,8.8029203414917,18,1.0,E,Europe/Paris,airport,OurAirports
CFE,1330,Clermont-Ferrand Auvergne Airport,Clermont-Ferrand,France,LFLC,45.786701202399996,3.1691699027999998,1090,1.0,E,Europe/Paris,airport,OurAirports
LYS,1335,Lyon Saint-Exupéry Airport,Lyon,France,LFLL,45.72555560000001,5.081111099999999,821,1.0,E,Europe/Paris,airport,OurAirports
AUR,1344,Aurillac Airport,Aurillac,France,LFLW,44.89139938354492,2.4219400882720947,2096,1.0,E,Europe/Paris,airport,OurAirports
EBU,1350,Saint-Étienne-Bouthéon Airport,St-Etienne,France,LFMH,45.54059982299805,4.2963900566101065,1325,1.0,E,Europe/Paris,airport,OurAirports
CCF,1352,Carcassonne Airport,Carcassonne,France,LFMK,43.21599960327149,2.3063199520111084,433,1.0,E,Europe/Paris,airport,OurAirports
MRS,1353,Marseille Provence Airport,Marseille,France,LFML,43.439271921999996,5.22142410278,74,1.0,E,Europe/Paris,airport,OurAirports
NCE,1354,Nice-Côte d'Azur Airport,Nice,France,LFMN,43.658401489300005,7.215869903560001,12,1.0,E,Europe/Paris,airport,OurAirports
PGF,1356,Perpignan-Rivesaltes (Llabanère) Airport,Perpignan,France,LFMP,42.74039840698242,2.8706700801849365,144,1.0,E,Europe/Paris,airport,OurAirports
MPL,1359,Montpellier-Méditerranée Airport,Montpellier,France,LFMT,43.57619857788086,3.96301007270813,17,1.0,E,Europe/Paris,airport,OurAirports
BZR,1360,Béziers-Vias Airport,Beziers,France,LFMU,43.32350158691406,3.353899955749512,56,1.0,E,Europe/Paris,airport,OurAirports
AVN,1361,Avignon-Caumont Airport,Avignon,France,LFMV,43.90729904174805,4.901830196380615,124,1.0,E,Europe/Paris,airport,OurAirports
BVA,1367,Paris Beauvais Tillé Airport,Beauvais,France,LFOB,49.45439910888672,2.1127800941467285,359,1.0,E,Europe/Paris,airport,OurAirports
LEH,1371,Le Havre Octeville Airport,Le Havre,France,LFOH,49.53390121459961,0.08805599808692932,313,1.0,E,Europe/Paris,airport,OurAirports
XCR,1374,Châlons-Vatry Air Base,Chalons,France,LFOK,48.776100158691406,4.184490203857422,587,1.0,E,Europe/Paris,airport,OurAirports
TUF,1376,Tours-Val-de-Loire Airport,Tours,France,LFOT,47.4322013855,0.727605998516,357,1.0,E,Europe/Paris,airport,OurAirports
CDG,1382,Charles de Gaulle International Airport,Paris,France,LFPG,49.0127983093,2.54999995232,392,1.0,E,Europe/Paris,airport,OurAirports
ORY,1386,Paris-Orly Airport,Paris,France,LFPO,48.7233333,2.3794444,291,1.0,E,Europe/Paris,airport,OurAirports
LIL,1399,Lille-Lesquin Airport,Lille,France,LFQQ,50.563332,3.0868860000000002,157,1.0,E,Europe/Paris,airport,OurAirports
BES,1403,Brest Bretagne Airport,Brest,France,LFRB,48.4478988647461,-4.418540000915527,325,1.0,E,Europe/Paris,airport,OurAirports
DNR,1405,Dinard-Pleurtuit-Saint-Malo Airport,Dinard,France,LFRD,48.58769989013672,-2.0799601078033447,219,1.0,E,Europe/Paris,airport,OurAirports
DOL,1408,Deauville-Saint-Gatien Airport,Deauville,France,LFRG,49.3652992249,0.154305994511,479,1.0,E,Europe/Paris,airport,OurAirports
LRT,1409,Lorient South Brittany (Bretagne Sud) Airport,Lorient,France,LFRH,47.76060104370117,-3.440000057220459,160,1.0,E,Europe/Paris,airport,OurAirports
CFR,1412,Caen-Carpiquet Airport,Caen,France,LFRK,49.173301696777344,-0.44999998807907104,256,1.0,E,Europe/Paris,airport,OurAirports
RNS,1415,Rennes-Saint-Jacques Airport,Rennes,France,LFRN,48.0694999695,-1.73478996754,124,1.0,E,Europe/Paris,airport,OurAirports
LAI,1416,Lannion-Côte de Granit Airport,Lannion,France,LFRO,48.75439834594727,-3.4716598987579346,290,1.0,E,Europe/Paris,airport,OurAirports
UIP,1417,Quimper-Cornouaille Airport,Quimper,France,LFRQ,47.974998474121094,-4.167789936065674,297,1.0,E,Europe/Paris,airport,OurAirports
NTE,1418,Nantes Atlantique Airport,Nantes,France,LFRS,47.15319824220001,-1.61073005199,90,1.0,E,Europe/Paris,airport,OurAirports
BSL,1423,EuroAirport Basel-Mulhouse-Freiburg Airport,Mulhouse,France,LFSB,47.59,7.5291667,885,1.0,E,Europe/Paris,airport,OurAirports
DIJ,1425,Dijon-Bourgogne Airport,Dijon,France,LFSD,47.268901825,5.09000015259,726,1.0,E,Europe/Paris,airport,OurAirports
SXB,1435,Strasbourg Airport,Strasbourg,France,LFST,48.53829956054688,7.628230094909668,505,1.0,E,Europe/Paris,airport,OurAirports
TLN,1438,Toulon-Hyères Airport,Hyeres,France,LFTH,43.0973014832,6.14602994919,7,1.0,E,Europe/Paris,airport,OurAirports
FNI,1439,Nîmes-Arles-Camargue Airport,Nimes,France,LFTW,43.75740051269531,4.4163498878479,309,1.0,E,Europe/Paris,airport,OurAirports
FSP,1441,St Pierre Airport,St.-pierre,Saint Pierre and Miquelon,LFVP,46.762901306152344,-56.17309951782226,27,-3.0,U,America/Miquelon,airport,OurAirports
AXD,1446,Dimokritos Airport,Alexandroupolis,Greece,LGAL,40.855899810791016,25.956300735473636,24,2.0,E,Europe/Athens,airport,OurAirports
VOL,1448,Nea Anchialos Airport,Nea Anghialos,Greece,LGBL,39.21960067749024,22.794300079345703,83,2.0,E,Europe/Athens,airport,OurAirports
JKH,1450,Chios Island National Airport,Chios,Greece,LGHI,38.34320068359375,26.14060020446777,15,2.0,E,Europe/Athens,airport,OurAirports
IOA,1451,Ioannina Airport,Ioannina,Greece,LGIO,39.6963996887207,20.82250022888184,1558,2.0,E,Europe/Athens,airport,OurAirports
HER,1452,Heraklion International Nikos Kazantzakis Airport,Heraklion,Greece,LGIR,35.3396987915,25.1802997589,115,2.0,E,Europe/Athens,airport,OurAirports
KSO,1453,Kastoria National Airport,Kastoria,Greece,LGKA,40.4463005066,21.282199859600002,2167,2.0,E,Europe/Athens,airport,OurAirports
KIT,1454,Kithira Airport,Kithira,Greece,LGKC,36.2742996216,23.0170001984,1045,2.0,E,Europe/Athens,airport,OurAirports
EFL,1455,Kefallinia Airport,Keffallinia,Greece,LGKF,38.12009811401367,20.5004997253418,59,2.0,E,Europe/Athens,airport,OurAirports
KLX,1456,Kalamata Airport,Kalamata,Greece,LGKL,37.06829833984375,22.02549934387207,26,2.0,E,Europe/Athens,airport,OurAirports
KGS,1458,Kos Airport,Kos,Greece,LGKO,36.79330062866211,27.09169960021973,412,2.0,E,Europe/Athens,airport,OurAirports
AOK,1459,Karpathos Airport,Karpathos,Greece,LGKP,35.4213981628418,27.145999908447266,66,2.0,E,Europe/Athens,airport,OurAirports
CFU,1460,Ioannis Kapodistrias International Airport,Kerkyra/corfu,Greece,LGKR,39.601898193359375,19.911699295043945,6,2.0,E,Europe/Athens,airport,OurAirports
KSJ,1461,Kasos Airport,Kasos,Greece,LGKS,35.4213981628,26.909999847399998,35,2.0,E,Europe/Athens,airport,OurAirports
KVA,1462,Alexander the Great International Airport,Kavala,Greece,LGKV,40.91329956054688,24.619199752807614,18,2.0,E,Europe/Athens,airport,OurAirports
KZI,1463,Filippos Airport,Kozani,Greece,LGKZ,40.28609848022461,21.84079933166504,2059,2.0,E,Europe/Athens,airport,OurAirports
LRS,1464,Leros Airport,Leros,Greece,LGLE,37.1848983765,26.800300598099998,39,2.0,E,Europe/Athens,airport,OurAirports
LXS,1465,Limnos Airport,Limnos,Greece,LGLM,39.917098999000004,25.236299514799995,14,2.0,E,Europe/Athens,airport,OurAirports
JMK,1468,Mikonos Airport,Mykonos,Greece,LGMK,37.43510055541992,25.348100662231445,405,2.0,E,Europe/Athens,airport,OurAirports
MJT,1469,Mytilene International Airport,Mytilini,Greece,LGMT,39.0567016602,26.5983009338,60,2.0,E,Europe/Athens,airport,OurAirports
PVK,1470,Aktion National Airport,Preveza,Greece,LGPZ,38.92549896240234,20.765300750732425,11,2.0,E,Europe/Athens,airport,OurAirports
RHO,1472,Diagoras Airport,Rhodos,Greece,LGRP,36.40539932250977,28.086200714111328,17,2.0,E,Europe/Athens,airport,OurAirports
GPA,1473,Araxos Airport,Patras,Greece,LGRX,38.1511,21.4256,46,2.0,E,Europe/Athens,airport,OurAirports
CHQ,1474,Chania International Airport,Chania,Greece,LGSA,35.531700134277344,24.149700164794922,490,2.0,E,Europe/Athens,airport,OurAirports
JSI,1475,Skiathos Island National Airport,Skiathos,Greece,LGSK,39.177101135253906,23.503700256347656,54,2.0,E,Europe/Athens,airport,OurAirports
SMI,1476,Samos Airport,Samos,Greece,LGSM,37.68999862670898,26.911699295043945,19,2.0,E,Europe/Athens,airport,OurAirports
JTR,1479,Santorini Airport,Thira,Greece,LGSR,36.39920043945313,25.47929954528809,127,2.0,E,Europe/Athens,airport,OurAirports
JSH,1480,Sitia Airport,Sitia,Greece,LGST,35.21609878540039,26.101299285888672,376,2.0,E,Europe/Athens,airport,OurAirports
SKU,1482,Skiros Airport,Skiros,Greece,LGSY,38.967601776100004,24.4871997833,44,2.0,E,Europe/Athens,airport,OurAirports
SKG,1486,Thessaloniki Macedonia International Airport,Thessaloniki,Greece,LGTS,40.51969909667969,22.97089958190918,22,2.0,E,Europe/Athens,airport,OurAirports
ZTH,1488,Dionysios Solomos Airport,Zakynthos,Greece,LGZA,37.75090026855469,20.884300231933594,15,2.0,E,Europe/Athens,airport,OurAirports
BUD,1489,Budapest Ferenc Liszt International Airport,Budapest,Hungary,LHBP,47.4369010925,19.2555999756,495,1.0,E,Europe/Budapest,airport,OurAirports
DEB,1490,Debrecen International Airport,Debrecen,Hungary,LHDC,47.48889923095703,21.61529922485352,359,1.0,E,Europe/Budapest,airport,OurAirports
BRI,1501,Bari Karol Wojtyła Airport,Bari,Italy,LIBD,41.138901000000004,16.760599,177,1.0,E,Europe/Rome,airport,OurAirports
PSR,1505,Pescara International Airport,Pescara,Italy,LIBP,42.431702,14.1811,48,1.0,E,Europe/Rome,airport,OurAirports
BDS,1506,Brindisi – Salento Airport,Brindisi,Italy,LIBR,40.6576,17.947001,47,1.0,E,Europe/Rome,airport,OurAirports
SUF,1508,Lamezia Terme Airport,Lamezia,Italy,LICA,38.905398999999996,16.2423,39,1.0,E,Europe/Rome,airport,OurAirports
CTA,1509,Catania-Fontanarossa Airport,Catania,Italy,LICC,37.466801000000004,15.0664,39,1.0,E,Europe/Rome,airport,OurAirports
LMP,1510,Lampedusa Airport,Lampedusa,Italy,LICD,35.497898,12.6181,70,1.0,E,Europe/Rome,airport,OurAirports
PNL,1511,Pantelleria Airport,Pantelleria,Italy,LICG,36.816502,11.9689,628,1.0,E,Europe/Rome,airport,OurAirports
PMO,1512,Falcone–Borsellino Airport,Palermo,Italy,LICJ,38.175999,13.091,65,1.0,E,Europe/Rome,airport,OurAirports
REG,1514,Reggio Calabria Airport,Reggio Calabria,Italy,LICR,38.071201,15.6516,96,1.0,E,Europe/Rome,airport,OurAirports
TPS,1515,Vincenzo Florio Airport Trapani-Birgi,Trapani,Italy,LICT,37.9114,12.488,25,1.0,E,Europe/Rome,airport,OurAirports
AHO,1517,Alghero-Fertilia Airport,Alghero,Italy,LIEA,40.632099,8.29077,87,1.0,E,Europe/Rome,airport,OurAirports
CAG,1519,Cagliari Elmas Airport,Cagliari,Italy,LIEE,39.251499,9.05428,13,1.0,E,Europe/Rome,airport,OurAirports
OLB,1520,Olbia Costa Smeralda Airport,Olbia,Italy,LIEO,40.898701,9.51763,37,1.0,E,Europe/Rome,airport,OurAirports
MXP,1524,Malpensa International Airport,Milano,Italy,LIMC,45.6306,8.728110000000001,768,1.0,E,Europe/Rome,airport,OurAirports
BGY,1525,Il Caravaggio International Airport,Bergamo,Italy,LIME,45.673901,9.70417,782,1.0,E,Europe/Rome,airport,OurAirports
TRN,1526,Turin Airport,Torino,Italy,LIMF,45.200802,7.64963,989,1.0,E,Europe/Rome,airport,OurAirports
GOA,1528,Genoa Cristoforo Colombo Airport,Genoa,Italy,LIMJ,44.4133,8.8375,13,1.0,E,Europe/Rome,airport,OurAirports
LIN,1529,Milano Linate Airport,Milan,Italy,LIML,45.445099,9.27674,353,1.0,E,Europe/Rome,airport,OurAirports
PMF,1531,Parma Airport,Parma,Italy,LIMP,44.824501,10.2964,161,1.0,E,Europe/Rome,airport,OurAirports
CUF,1534,Cuneo International Airport,Cuneo,Italy,LIMZ,44.547001,7.62322,1267,1.0,E,Europe/Rome,airport,OurAirports
BZO,1536,Bolzano Airport,Bolzano,Italy,LIPB,46.460201,11.3264,789,1.0,E,Europe/Rome,airport,OurAirports
BLQ,1538,Bologna Guglielmo Marconi Airport,Bologna,Italy,LIPE,44.5354,11.2887,123,1.0,E,Europe/Rome,airport,OurAirports
TSF,1539,Treviso-Sant'Angelo Airport,Treviso,Italy,LIPH,45.648399,12.1944,59,1.0,E,Europe/Rome,airport,OurAirports
TRS,1545,Trieste–Friuli Venezia Giulia Airport,Ronchi De Legionari,Italy,LIPQ,45.827498999999996,13.4722,39,1.0,E,Europe/Rome,airport,OurAirports
RMI,1546,Federico Fellini International Airport,Rimini,Italy,LIPR,44.020302,12.6117,40,1.0,E,Europe/Rome,airport,OurAirports
VRN,1550,Verona Villafranca Airport,Villafranca,Italy,LIPX,45.395699,10.8885,239,1.0,E,Europe/Rome,airport,OurAirports
VCE,1551,Venice Marco Polo Airport,Venice,Italy,LIPZ,45.505299,12.3519,7,1.0,E,Europe/Rome,airport,OurAirports
CIA,1553,Ciampino–G. B. Pastine International Airport,Rome,Italy,LIRA,41.7994,12.5949,427,1.0,E,Europe/Rome,airport,OurAirports
FCO,1555,Leonardo da Vinci–Fiumicino Airport,Rome,Italy,LIRF,41.800277799999996,12.238888900000001,13,1.0,E,Europe/Rome,airport,OurAirports
EBA,1558,Marina Di Campo Airport,Marina Di Campo,Italy,LIRJ,42.7603,10.2394,31,1.0,E,Europe/Rome,airport,OurAirports
NAP,1561,Naples International Airport,Naples,Italy,LIRN,40.886002000000005,14.2908,294,1.0,E,Europe/Rome,airport,OurAirports
PSA,1562,Pisa International Airport,Pisa,Italy,LIRP,43.683899,10.3927,6,1.0,E,Europe/Rome,airport,OurAirports
FLR,1563,Peretola Airport,Florence,Italy,LIRQ,43.810001,11.2051,142,1.0,E,Europe/Rome,airport,OurAirports
PEG,1567,Perugia San Francesco d'Assisi – Umbria International Airport,Perugia,Italy,LIRZ,43.095901,12.5132,697,1.0,E,Europe/Rome,airport,OurAirports
LJU,1569,Ljubljana Jože Pučnik Airport,Ljubljana,Slovenia,LJLJ,46.223701,14.4576,1273,1.0,E,Europe/Ljubljana,airport,OurAirports
KLV,1579,Karlovy Vary International Airport,Karlovy Vary,Czech Republic,LKKV,50.20299911499024,12.914999961853027,1989,1.0,E,Europe/Prague,airport,OurAirports
OSR,1582,Ostrava Leos Janáček Airport,Ostrava,Czech Republic,LKMT,49.6963005065918,18.111099243164066,844,1.0,E,Europe/Prague,airport,OurAirports
PED,1584,Pardubice Airport,Pardubice,Czech Republic,LKPD,50.01340103149414,15.73859977722168,741,1.0,E,Europe/Prague,airport,OurAirports
PRG,1587,Václav Havel Airport Prague,Prague,Czech Republic,LKPR,50.1008,14.26,1247,1.0,E,Europe/Prague,airport,OurAirports
BRQ,1588,Brno-Tuřany Airport,Brno,Czech Republic,LKTB,49.15129852294922,16.694400787353516,778,1.0,E,Europe/Prague,airport,OurAirports
TLV,1590,Ben Gurion International Airport,Tel-aviv,Israel,LLBG,32.011398315429695,34.88669967651367,135,2.0,E,Asia/Jerusalem,airport,OurAirports
ETH,1594,Eilat Airport,Elat,Israel,LLET,29.56130027770996,34.960098266601555,42,2.0,E,Asia/Jerusalem,airport,OurAirports
HFA,1596,Haifa International Airport,Haifa,Israel,LLHA,32.809398651123054,35.04309844970703,28,2.0,E,Asia/Jerusalem,airport,OurAirports
VDA,1602,Ovda International Airport,Ovda,Israel,LLOV,29.94029998779297,34.93579864501953,1492,2.0,E,Asia/Jerusalem,airport,OurAirports
SDV,1605,Sde Dov Airport,Tel-aviv,Israel,LLSD,32.114700317382805,34.78219985961914,43,2.0,E,Asia/Jerusalem,airport,OurAirports
MLA,1606,Malta International Airport,Malta,Malta,LMML,35.857498,14.4775,300,1.0,E,Europe/Malta,airport,OurAirports
GRZ,1609,Graz Airport,Graz,Austria,LOWG,46.9911003112793,15.439599990844727,1115,1.0,E,Europe/Vienna,airport,OurAirports
INN,1610,Innsbruck Airport,Innsbruck,Austria,LOWI,47.260201,11.344000000000001,1907,1.0,E,Europe/Vienna,airport,OurAirports
LNZ,1611,Linz Hörsching Airport,Linz,Austria,LOWL,48.2332,14.1875,980,1.0,E,Europe/Vienna,airport,OurAirports
SZG,1612,Salzburg Airport,Salzburg,Austria,LOWS,47.793300628699996,13.0043001175,1411,1.0,E,Europe/Vienna,airport,OurAirports
VIE,1613,Vienna International Airport,Vienna,Austria,LOWW,48.110298156738004,16.569700241089002,600,1.0,E,Europe/Vienna,airport,OurAirports
SMA,1617,Santa Maria Airport,Santa Maria (island),Portugal,LPAZ,36.97140121459961,-25.17060089111328,308,-1.0,E,Atlantic/Azores,airport,OurAirports
FLW,1625,Flores Airport,Flores,Portugal,LPFL,39.455299377441406,-31.13139915466309,112,-1.0,E,Atlantic/Azores,airport,OurAirports
FAO,1626,Faro Airport,Faro,Portugal,LPFR,37.014400482199996,-7.965909957889999,24,0.0,E,Europe/Lisbon,airport,OurAirports
GRW,1627,Graciosa Airport,Graciosa Island,Portugal,LPGR,39.092201232910156,-28.029800415039066,86,-1.0,E,Atlantic/Azores,airport,OurAirports
HOR,1628,Horta Airport,Horta,Portugal,LPHR,38.51990127563477,-28.715900421142575,118,-1.0,E,Atlantic/Azores,airport,OurAirports
TER,1629,Lajes Field,Lajes (terceira Island),Portugal,LPLA,38.7617988586,-27.0907993317,180,-1.0,E,Atlantic/Azores,airport,OurAirports
PDL,1633,João Paulo II Airport,Ponta Delgada,Portugal,LPPD,37.7411994934,-25.6979007721,259,-1.0,E,Atlantic/Azores,airport,OurAirports
PIX,1634,Pico Airport,Pico,Portugal,LPPI,38.554298400878906,-28.44129943847656,109,-1.0,E,Atlantic/Azores,airport,OurAirports
OPO,1636,Francisco de Sá Carneiro Airport,Porto,Portugal,LPPR,41.248100280799996,-8.68138980865,228,0.0,E,Europe/Lisbon,airport,OurAirports
PXO,1637,Porto Santo Airport,Porto Santo,Portugal,LPPS,33.073398590100005,-16.3500003815,341,0.0,E,Europe/Lisbon,airport,OurAirports
LIS,1638,Lisbon Portela Airport,Lisbon,Portugal,LPPT,38.7812995911,-9.13591957092,374,0.0,E,Europe/Lisbon,airport,OurAirports
SJZ,1639,São Jorge Airport,Sao Jorge Island,Portugal,LPSJ,38.66550064086914,-28.175800323486328,311,-1.0,E,Atlantic/Azores,airport,OurAirports
OMO,1645,Mostar International Airport,Mostar,Bosnia and Herzegovina,LQMO,43.282901763916016,17.84589958190918,156,1.0,E,Europe/Sarajevo,airport,OurAirports
SJJ,1646,Sarajevo International Airport,Sarajevo,Bosnia and Herzegovina,LQSA,43.82460021972656,18.331499099731445,1708,1.0,E,Europe/Sarajevo,airport,OurAirports
ARW,1647,Arad International Airport,Arad,Romania,LRAR,46.17660140991211,21.261999130249023,352,2.0,E,Europe/Bucharest,airport,OurAirports
BAY,1649,Tautii Magheraus Airport,Baia Mare,Romania,LRBM,47.65840148925781,23.46999931335449,605,2.0,E,Europe/Bucharest,airport,OurAirports
CND,1651,Mihail Kogălniceanu International Airport,Constanta,Romania,LRCK,44.36220169067383,28.488300323486328,353,2.0,E,Europe/Bucharest,airport,OurAirports
CLJ,1652,Cluj-Napoca International Airport,Cluj-napoca,Romania,LRCL,46.78519821166992,23.686199188232425,1036,2.0,E,Europe/Bucharest,airport,OurAirports
CRA,1654,Craiova Airport,Craiova,Romania,LRCV,44.31809997558594,23.888599395751953,626,2.0,E,Europe/Bucharest,airport,OurAirports
